[
  {
    "id": "3240664",
    "company": "NID SA",
    "job": "Agent/e d'exploitation (Service conciergerie) CFC",
    "canton": "NE",
    "city": "La Chaux-de-Fonds",
    "lat": 47.07938766479492,
    "lng": 6.785107612609863,
    "address": "Le Crêt-du-Locle 10 2301 La Chaux-de-Fonds",
    "postal": "2301",
    "positions": 1,
    "contact_email": "corinnebr@nid.swiss",
    "contact_phone": "0329240414",
    "start_year": 2026,
    "language": "Fr"
  },
  {
    "id": "3778210",
    "company": "Ville de La Chaux-de-Fonds",
    "job": "Agent/e d'exploitation (Service conciergerie) CFC",
    "canton": "NE",
    "city": "La Chaux-de-Fonds",
    "lat": 47.10295867919922,
    "lng": 6.828466415405273,
    "address": "Rue de la Serre 23 2300 La Chaux-de-Fonds",
    "postal": "2300",
    "positions": 2,
    "contact_email": "SRH.VCH@ne.ch",
    "contact_phone": "0329676281",
    "start_year": 2026,
    "language": "Fr"
  },
  {
    "id": "3169673",
    "company": "Fondation La Résidence",
    "job": "Agent/e d'exploitation (Service conciergerie) CFC",
    "canton": "NE",
    "city": "Le Locle",
    "lat": 47.05492401123047,
    "lng": 6.739338397979736,
    "address": "Rue des Billodes  40 2400 Le Locle",
    "postal": "2400",
    "positions": 1,
    "contact_email": "fondation.residence@ne.ch",
    "contact_phone": "0329332111",
    "start_year": 2026,
    "language": "Fr"
  },
  {
    "id": "3206023",
    "company": "Alfen SA",
    "job": "Agent/e d'exploitation (Service conciergerie) CFC",
    "canton": "NE",
    "city": "Neuchâtel",
    "lat": 46.99652099609375,
    "lng": 6.9405975341796875,
    "address": "Clos-Brochet  10 2000 Neuchâtel",
    "postal": "2000",
    "positions": 1,
    "contact_email": "info@alfen.ch",
    "contact_phone": "0327276850",
    "start_year": 2026,
    "language": "Fr"
  },
  {
    "id": "3215086",
    "company": "Association OSEO Neuchâtel",
    "job": "Agent/e d'exploitation (Service conciergerie) CFC",
    "canton": "NE",
    "city": "Neuchâtel",
    "lat": 46.99652099609375,
    "lng": 6.9405975341796875,
    "address": "Av. de Clos-Brochet 10 2000 Neuchâtel",
    "postal": "2000",
    "positions": 1,
    "contact_email": "michel.tille@oseo-ne.ch",
    "contact_phone": "0799197678",
    "start_year": 2026,
    "language": "Fr"
  },
  {
    "id": "3170116",
    "company": "Home médicalisé Les Charmettes",
    "job": "Agent/e d'exploitation (Service conciergerie) CFC",
    "canton": "NE",
    "city": "Neuchâtel",
    "lat": 46.98814010620117,
    "lng": 6.905224323272705,
    "address": "Charmettes 8 2000 Neuchâtel",
    "postal": "2000",
    "positions": 2,
    "contact_email": "home.lescharmettes@ne.ch",
    "contact_phone": "0327329191",
    "start_year": 2026,
    "language": "Fr"
  },
  {
    "id": "3375145",
    "company": "Administration communale de Boudry",
    "job": "Agent/e d'exploitation (Service voirie) CFC",
    "canton": "NE",
    "city": "Boudry",
    "lat": 46.95443344116211,
    "lng": 6.823338031768799,
    "address": "Route des Addoz 68 2017 Boudry",
    "postal": "2017",
    "positions": 1,
    "contact_email": "ressourceshumaines.boudry@ne.ch",
    "contact_phone": "0328864769",
    "start_year": 2026,
    "language": "Fr"
  },
  {
    "id": "3213817",
    "company": "Administration communale de Val-de-Ruz",
    "job": "Agent/e d'exploitation (Service voirie) CFC",
    "canton": "NE",
    "city": "Cernier",
    "lat": 47.059669494628906,
    "lng": 6.902095317840576,
    "address": "Rue de l'Epervier 6 2053 Cernier",
    "postal": "2053",
    "positions": 1,
    "contact_email": "rh.val-de-ruz@ne.ch",
    "contact_phone": "0328865631",
    "start_year": 2026,
    "language": "Fr"
  },
  {
    "id": "3301205",
    "company": "Ville de La Chaux-de-Fonds",
    "job": "Agent/e en information documentaire CFC",
    "canton": "NE",
    "city": "La Chaux-de-Fonds",
    "lat": 47.10295867919922,
    "lng": 6.828466415405273,
    "address": "Rue de la Serre 23 2300 La Chaux-de-Fonds",
    "postal": "2300",
    "positions": 1,
    "contact_email": "SRH.VCH@ne.ch",
    "contact_phone": "0329676281",
    "start_year": 2026,
    "language": "Fr"
  },
  {
    "id": "3301323",
    "company": "Etat de Neuchâtel",
    "job": "Agent/e en information documentaire CFC",
    "canton": "NE",
    "city": "Neuchâtel",
    "lat": 46.983360290527344,
    "lng": 6.904846668243408,
    "address": "Rue de Tivoli 28 2000 Neuchâtel",
    "postal": "2000",
    "positions": 1,
    "contact_email": "",
    "contact_phone": "",
    "start_year": 2026,
    "language": "Fr"
  },
  {
    "id": "3389708",
    "company": "Ferme biosem - Adrian Jutzet",
    "job": "Agriculteur/trice (Culture biologique) CFC",
    "canton": "NE",
    "city": "Chambrelien",
    "lat": 46.97084426879883,
    "lng": 6.819632530212402,
    "address": "Le Burkli   81-83 2019 Chambrelien",
    "postal": "2019",
    "positions": 1,
    "contact_email": "biosem@biosem.ch",
    "contact_phone": "0328551486",
    "start_year": 2026,
    "language": "Fr"
  },
  {
    "id": "3389704",
    "company": "Communauté d'exploitation Droz Olivier et Bastian",
    "job": "Agriculteur/trice (Culture biologique) CFC",
    "canton": "NE",
    "city": "La Chaux-de-Fonds",
    "lat": 47.100608825683594,
    "lng": 6.80060338973999,
    "address": "La Sombaille 36 2300 La Chaux-de-Fonds",
    "postal": "2300",
    "positions": 1,
    "contact_email": "bastian.droz@bluewin.ch",
    "contact_phone": "0793605414",
    "start_year": 2026,
    "language": "Fr"
  },
  {
    "id": "3389698",
    "company": "Maridor Myriam",
    "job": "Agriculteur/trice (Culture des champs) CFC",
    "canton": "NE",
    "city": "Fenin",
    "lat": 47.02552795410156,
    "lng": 6.921370983123779,
    "address": "Rue Jean-de-Tribolet  1 2063 Fenin",
    "postal": "2063",
    "positions": 1,
    "contact_email": "myriam.maridor@bluewin.ch",
    "contact_phone": "0787566445",
    "start_year": 2026,
    "language": "Fr"
  },
  {
    "id": "3417284",
    "company": "Exploitation agricole Kevin Girardin",
    "job": "Agriculteur/trice (Culture des champs) CFC",
    "canton": "NE",
    "city": "Le Cerneux-Péquignot",
    "lat": 47.02263259887695,
    "lng": 6.6796064376831055,
    "address": "Les Etages 79 2414 Le Cerneux-Péquignot",
    "postal": "2414",
    "positions": 1,
    "contact_email": "lesetages79@hotmail.com",
    "contact_phone": "0799107794",
    "start_year": 2026,
    "language": "Fr"
  },
  {
    "id": "3412428",
    "company": "René Roth",
    "job": "Agriculteur/trice (Culture des champs) CFC",
    "canton": "NE",
    "city": "Le Landeron",
    "lat": 47.05942153930664,
    "lng": 7.04848575592041,
    "address": "Combes 2 2525 Le Landeron",
    "postal": "2525",
    "positions": 1,
    "contact_email": "rm.roth@bluewin.ch",
    "contact_phone": "0796063584",
    "start_year": 2026,
    "language": "Fr"
  },
  {
    "id": "3389702",
    "company": "Agro MS SA - exploitation agricole",
    "job": "Agriculteur/trice (Culture des champs) CFC",
    "canton": "NE",
    "city": "Les Ponts-de-Martel",
    "lat": 46.992305755615234,
    "lng": 6.717329978942871,
    "address": "La Molta-Dessous 3 2316 Les Ponts-de-Martel",
    "postal": "2316",
    "positions": 1,
    "contact_email": "agroms@bluewin.ch",
    "contact_phone": "0799511942",
    "start_year": 2026,
    "language": "Fr"
  },
  {
    "id": "3389700",
    "company": "Menoud Frères",
    "job": "Agriculteur/trice (Culture des champs) CFC",
    "canton": "NE",
    "city": "Môtiers NE",
    "lat": 46.90251159667969,
    "lng": 6.606989860534668,
    "address": "Le Pré-Monsieur  2 2112 Môtiers NE",
    "postal": "2112",
    "positions": 2,
    "contact_email": "info@menoudred.ch",
    "contact_phone": "0328612721",
    "start_year": 2026,
    "language": "Fr"
  },
  {
    "id": "3421496",
    "company": "Communauté partielle d'exploitation Wälti-Baerfuss",
    "job": "Agriculteur/trice (Culture des champs) CFC",
    "canton": "NE",
    "city": "Valangin",
    "lat": 47.01540756225586,
    "lng": 6.892746448516846,
    "address": "Bussy 2 2042 Valangin",
    "postal": "2042",
    "positions": 2,
    "contact_email": "sylvain-baerfuss@hotmail.ch",
    "contact_phone": "0786925874",
    "start_year": 2026,
    "language": "Fr"
  },
  {
    "id": "3389706",
    "company": "Exploitation Agricole Vincent Perrin",
    "job": "Agriculteur/trice (Culture des champs) CFC",
    "canton": "NE",
    "city": "Valangin",
    "lat": 47.017601013183594,
    "lng": 6.8915276527404785,
    "address": "Le Sorgereux   3 2042 Valangin",
    "postal": "2042",
    "positions": 1,
    "contact_email": "vincent_perrin@hotmail.com",
    "contact_phone": "0327311531",
    "start_year": 2026,
    "language": "Fr"
  },
  {
    "id": "3287316",
    "company": "Laurent Jeanneret",
    "job": "Agropraticien/ne (Agriculture) AFP",
    "canton": "NE",
    "city": "Les Ponts-de-Martel",
    "lat": 47.00031280517578,
    "lng": 6.736600875854492,
    "address": "Major-Benoit 20 2316 Les Ponts-de-Martel",
    "postal": "2316",
    "positions": 1,
    "contact_email": "laurentjeanneret@hotmail.com",
    "contact_phone": "0796134986",
    "start_year": 2026,
    "language": "Fr"
  },
  {
    "id": "3169490",
    "company": "Jacot Chauffage SA",
    "job": "Aide en chauffage AFP",
    "canton": "NE",
    "city": "Auvernier",
    "lat": 46.971981048583984,
    "lng": 6.871828079223633,
    "address": "Route des Graviers  31 2012 Auvernier",
    "postal": "2012",
    "positions": 1,
    "contact_email": "info@jacot-chauffage.ch",
    "contact_phone": "0327377000",
    "start_year": 2026,
    "language": "Fr"
  },
  {
    "id": "3417289",
    "company": "Voegtli SA",
    "job": "Aide en chauffage AFP",
    "canton": "NE",
    "city": "La Chaux-de-Fonds",
    "lat": 47.10097122192383,
    "lng": 6.817867755889893,
    "address": "Rue du Nord  176 2300 La Chaux-de-Fonds",
    "postal": "2300",
    "positions": 1,
    "contact_email": "info@voegtlisa.ch",
    "contact_phone": "0329112233",
    "start_year": 2026,
    "language": "Fr"
  },
  {
    "id": "3169369",
    "company": "Meneo Energie SA",
    "job": "Aide en chauffage AFP",
    "canton": "NE",
    "city": "Marin-Epagnier",
    "lat": 47.012210845947266,
    "lng": 7.000040054321289,
    "address": "Avenue des Champs-Montants  14b 2074 Marin-Epagnier",
    "postal": "2074",
    "positions": 1,
    "contact_email": "info@meneo-sa.ch",
    "contact_phone": "0327557070",
    "start_year": 2026,
    "language": "Fr"
  },
  {
    "id": "3198544",
    "company": "Gottburg SA",
    "job": "Aide en ferblanterie AFP",
    "canton": "NE",
    "city": "Boudry",
    "lat": 46.96010208129883,
    "lng": 6.837349891662598,
    "address": "Route de la Gare  68 2017 Boudry",
    "postal": "2017",
    "positions": 1,
    "contact_email": "info@gottburg.ch",
    "contact_phone": "0328461630",
    "start_year": 2026,
    "language": "Fr"
  },
  {
    "id": "3169412",
    "company": "Voegtli SA",
    "job": "Aide en sanitaire AFP",
    "canton": "NE",
    "city": "La Chaux-de-Fonds",
    "lat": 47.10097122192383,
    "lng": 6.817867755889893,
    "address": "Rue du Nord  176 2300 La Chaux-de-Fonds",
    "postal": "2300",
    "positions": 1,
    "contact_email": "info@voegtlisa.ch",
    "contact_phone": "0329112233",
    "start_year": 2026,
    "language": "Fr"
  },
  {
    "id": "3206933",
    "company": "EMS Carpe Diem SA",
    "job": "Aide en soins et accompagnement AFP",
    "canton": "NE",
    "city": "Boudry",
    "lat": 46.95098114013672,
    "lng": 6.830440521240234,
    "address": "Route des Addoz 4A 2017 Boudry",
    "postal": "2017",
    "positions": 1,
    "contact_email": "contact@ems-carpediem.ch",
    "contact_phone": "0328430450",
    "start_year": 2026,
    "language": "Fr"
  },
  {
    "id": "3294087",
    "company": "Home médicalisé Le Foyer de la Côte",
    "job": "Aide en soins et accompagnement AFP",
    "canton": "NE",
    "city": "Corcelles NE",
    "lat": 46.98484802246094,
    "lng": 6.872994899749756,
    "address": "Chemin du Foyer 3 2035 Corcelles NE",
    "postal": "2035",
    "positions": 1,
    "contact_email": "foyer.lacote@ne.ch",
    "contact_phone": "0327322000",
    "start_year": 2026,
    "language": "Fr"
  },
  {
    "id": "3286727",
    "company": "Home médicalisé Dubied",
    "job": "Aide en soins et accompagnement AFP",
    "canton": "NE",
    "city": "Couvet",
    "lat": 46.923065185546875,
    "lng": 6.625115871429443,
    "address": "Rue de Fontenelle 19 2108 Couvet",
    "postal": "2108",
    "positions": 2,
    "contact_email": "home.dubied@ne.ch",
    "contact_phone": "0328640101",
    "start_year": 2026,
    "language": "Fr"
  },
  {
    "id": "3286760",
    "company": "Home médicalisé Les Charmettes",
    "job": "Aide en soins et accompagnement AFP",
    "canton": "NE",
    "city": "Neuchâtel",
    "lat": 46.98814010620117,
    "lng": 6.905224323272705,
    "address": "Charmettes 8 2000 Neuchâtel",
    "postal": "2000",
    "positions": 2,
    "contact_email": "home.lescharmettes@ne.ch",
    "contact_phone": "0327329191",
    "start_year": 2026,
    "language": "Fr"
  },
  {
    "id": "3286638",
    "company": "La Fontanette, EMS de la Béroche",
    "job": "Aide en soins et accompagnement AFP",
    "canton": "NE",
    "city": "St-Aubin-Sauges",
    "lat": 47.0986213684082,
    "lng": 7.954939365386963,
    "address": "EMS de la Béroche Rue de la Fontanette  10",
    "postal": "2024",
    "positions": 1,
    "contact_email": "home.fontanette@ne.ch",
    "contact_phone": "0328362323",
    "start_year": 2026,
    "language": "Fr"
  },
  {
    "id": "3286687",
    "company": "La Perlaz",
    "job": "Aide en soins et accompagnement AFP",
    "canton": "NE",
    "city": "St-Aubin-Sauges",
    "lat": 46.892818450927734,
    "lng": 6.769690036773682,
    "address": "Rue de l'Hôpital 12 2024 St-Aubin-Sauges",
    "postal": "2024",
    "positions": 1,
    "contact_email": "laperlaz@ne.ch",
    "contact_phone": "0328361900",
    "start_year": 2026,
    "language": "Fr"
  },
  {
    "id": "3286497",
    "company": "Résidence Le Castel",
    "job": "Aide en soins et accompagnement AFP",
    "canton": "NE",
    "city": "St-Blaise",
    "lat": 47.01361083984375,
    "lng": 6.989537715911865,
    "address": "Rue du Vigner  13 2072 St-Blaise",
    "postal": "2072",
    "positions": 1,
    "contact_email": "info@le-castel.ch",
    "contact_phone": "0325545000",
    "start_year": 2026,
    "language": "Fr"
  },
  {
    "id": "3410816",
    "company": "Serrurerie - Constr. Métalliques J-D NUSSBAUM Sàrl",
    "job": "Aide-constructeur/trice métallique AFP",
    "canton": "NE",
    "city": "St-Aubin-Sauges",
    "lat": 46.89395523071289,
    "lng": 6.777666091918945,
    "address": "Rafour  1 2024 St-Aubin-Sauges",
    "postal": "2024",
    "positions": 1,
    "contact_email": "serrurerie-jd.nussbaum@bluewin.ch",
    "contact_phone": "0328352863",
    "start_year": 2026,
    "language": "Fr"
  },
  {
    "id": "3301180",
    "company": "Lienher S.A.",
    "job": "Aide-menuisier/ière (Fabrication de fenêtres) AFP",
    "canton": "NE",
    "city": "Savagnier",
    "lat": 47.05227279663086,
    "lng": 6.953189849853516,
    "address": "Corbes  27 2065 Savagnier",
    "postal": "2065",
    "positions": 1,
    "contact_email": "info@lienher.ch",
    "contact_phone": "0328532324",
    "start_year": 2026,
    "language": "Fr"
  },
  {
    "id": "3287335",
    "company": "Gaille Construction SA",
    "job": "Aide-menuisier/ière (Menuiserie) AFP",
    "canton": "NE",
    "city": "Fresens",
    "lat": 46.88809585571289,
    "lng": 6.749453067779541,
    "address": "Route de Saint-Aubin  3 2027 Fresens",
    "postal": "2027",
    "positions": 1,
    "contact_email": "info@gaille.ch",
    "contact_phone": "0328352828",
    "start_year": 2026,
    "language": "Fr"
  },
  {
    "id": "3286283",
    "company": "Stoppa Fils S.A.",
    "job": "Aide-peintre AFP",
    "canton": "NE",
    "city": "Marin-Epagnier",
    "lat": 47.01113510131836,
    "lng": 6.996790409088135,
    "address": "Rue des Indiennes  11 2074 Marin-Epagnier",
    "postal": "2074",
    "positions": 1,
    "contact_email": "info@stoppa-peinture.ch",
    "contact_phone": "0327303090",
    "start_year": 2026,
    "language": "Fr"
  },
  {
    "id": "3286591",
    "company": "Buschini S.A.",
    "job": "Aide-peintre AFP",
    "canton": "NE",
    "city": "Neuchâtel",
    "lat": 46.991722106933594,
    "lng": 6.923160552978516,
    "address": "Rue de Prébarreau  15 2000 Neuchâtel",
    "postal": "2000",
    "positions": 2,
    "contact_email": "adm@buschini-sa.ch",
    "contact_phone": "0327221600",
    "start_year": 2026,
    "language": "Fr"
  },
  {
    "id": "3286592",
    "company": "Buschini S.A.",
    "job": "Aide-plâtrier/ière AFP",
    "canton": "NE",
    "city": "Neuchâtel",
    "lat": 46.991722106933594,
    "lng": 6.923160552978516,
    "address": "Rue de Prébarreau  15 2000 Neuchâtel",
    "postal": "2000",
    "positions": 2,
    "contact_email": "adm@buschini-sa.ch",
    "contact_phone": "0327221600",
    "start_year": 2026,
    "language": "Fr"
  },
  {
    "id": "3286512",
    "company": "Cabinet dentaire de Couvet Sàrl",
    "job": "Assistant/e dentaire CFC",
    "canton": "NE",
    "city": "Couvet",
    "lat": 46.92595672607422,
    "lng": 6.632549285888672,
    "address": "Grand-Rue 29 2108 Couvet",
    "postal": "2108",
    "positions": 1,
    "contact_email": "cabinet.dentaire.couvet@hotmail.com",
    "contact_phone": "0328633434",
    "start_year": 2026,
    "language": "Fr"
  },
  {
    "id": "3294295",
    "company": "Cabinet dentaire Corália Filipa Teixeira Ribeiro",
    "job": "Assistant/e dentaire CFC",
    "canton": "NE",
    "city": "La Chaux-de-Fonds",
    "lat": 47.09962844848633,
    "lng": 6.826510429382324,
    "address": "Rue des Musées  58 2300 La Chaux-de-Fonds",
    "postal": "2300",
    "positions": 1,
    "contact_email": "ribeirocabinetdentaire@gmail.com",
    "contact_phone": "0329133239",
    "start_year": 2026,
    "language": "Fr"
  },
  {
    "id": "3286515",
    "company": "Cabinet Dentaire Numéro 12 Sàrl",
    "job": "Assistant/e dentaire CFC",
    "canton": "NE",
    "city": "La Chaux-de-Fonds",
    "lat": 47.191349029541016,
    "lng": 7.198330402374268,
    "address": "Av. L.-Robert 12 2300 La Chaux-de-Fonds",
    "postal": "2300",
    "positions": 1,
    "contact_email": "info@no12.ch",
    "contact_phone": "0329135000",
    "start_year": 2026,
    "language": "Fr"
  },
  {
    "id": "3230949",
    "company": "Ardentis Clinique Dentaire Neuchâtel SA",
    "job": "Assistant/e dentaire CFC",
    "canton": "NE",
    "city": "Neuchâtel",
    "lat": 46.991416931152344,
    "lng": 6.929141998291016,
    "address": "Rue du Seyon 10 2000 Neuchâtel",
    "postal": "2000",
    "positions": 1,
    "contact_email": "jobs@ardentis.ch",
    "contact_phone": "0582340178",
    "start_year": 2026,
    "language": "Fr"
  },
  {
    "id": "3238228",
    "company": "Lidl Schweiz AG Succursale Bevaix",
    "job": "Assistant/e du commerce de détail (Alimentation) AFP",
    "canton": "NE",
    "city": "Bevaix",
    "lat": 46.920928955078125,
    "lng": 6.8071722984313965,
    "address": "Chemin des Maladières 18 2022 Bevaix",
    "postal": "2022",
    "positions": 1,
    "contact_email": "",
    "contact_phone": "",
    "start_year": 2026,
    "language": "De - Fr"
  },
  {
    "id": "3303462",
    "company": "COOP - Succursale de Colombier",
    "job": "Assistant/e du commerce de détail (Alimentation) AFP",
    "canton": "NE",
    "city": "Colombier NE",
    "lat": 46.965309143066406,
    "lng": 6.854291915893555,
    "address": "Route de Sombacour 21A 2013 Colombier NE",
    "postal": "2013",
    "positions": 3,
    "contact_email": "",
    "contact_phone": "",
    "start_year": 2026,
    "language": "Fr"
  },
  {
    "id": "3303489",
    "company": "Coop La Chaux-de-Fonds Eplatures",
    "job": "Assistant/e du commerce de détail (Alimentation) AFP",
    "canton": "NE",
    "city": "La Chaux-de-Fonds",
    "lat": 47.08840560913086,
    "lng": 6.80275821685791,
    "address": "Boulevard des Eplatures 20 2300 La Chaux-de-Fonds",
    "postal": "2300",
    "positions": 3,
    "contact_email": "",
    "contact_phone": "",
    "start_year": 2026,
    "language": "Fr"
  },
  {
    "id": "3205496",
    "company": "Aldi Neuchâtel",
    "job": "Assistant/e du commerce de détail (Alimentation) AFP",
    "canton": "NE",
    "city": "Neuchâtel",
    "lat": 46.990455627441406,
    "lng": 6.930368900299072,
    "address": "Rue St-Honoré 18 2000 Neuchâtel",
    "postal": "2000",
    "positions": 1,
    "contact_email": "",
    "contact_phone": "",
    "start_year": 2026,
    "language": "Fr"
  },
  {
    "id": "3305453",
    "company": "Coop Neuchâtel",
    "job": "Assistant/e du commerce de détail (Alimentation) AFP",
    "canton": "NE",
    "city": "Neuchâtel",
    "lat": 46.99593734741211,
    "lng": 6.944793701171875,
    "address": "Rue de la Pierre-à-Mazel 10 2000 Neuchâtel",
    "postal": "2000",
    "positions": 3,
    "contact_email": "",
    "contact_phone": "",
    "start_year": 2026,
    "language": "Fr"
  },
  {
    "id": "3213519",
    "company": "Marché-Prodega Transgourmet Suisse SA",
    "job": "Assistant/e du commerce de détail (Alimentation) AFP",
    "canton": "NE",
    "city": "St-Blaise",
    "lat": 47.0108757019043,
    "lng": 6.99339485168457,
    "address": "Rue de la Musinière 17 2072 St-Blaise",
    "postal": "2072",
    "positions": 1,
    "contact_email": "monique.hussy@transgourmet.ch",
    "contact_phone": "0041327560707",
    "start_year": 2026,
    "language": "Fr"
  },
  {
    "id": "3334728",
    "company": "Pharmacie D'Herborence Sàrl",
    "job": "Assistant/e en pharmacie CFC",
    "canton": "NE",
    "city": "Boudry",
    "lat": 46.94997787475586,
    "lng": 6.837083339691162,
    "address": "Rue Oscar-Huguenin  23 2017 Boudry",
    "postal": "2017",
    "positions": 1,
    "contact_email": "info@dherborence.ch",
    "contact_phone": "0328450400",
    "start_year": 2026,
    "language": "Fr"
  },
  {
    "id": "3334733",
    "company": "Pharmacie Marti SA",
    "job": "Assistant/e en pharmacie CFC",
    "canton": "NE",
    "city": "Cernier",
    "lat": 47.05894088745117,
    "lng": 6.9012298583984375,
    "address": "Rue Frédéric Soguel  4 2053 Cernier",
    "postal": "2053",
    "positions": 1,
    "contact_email": "cernier@pharmaciemarti.ch",
    "contact_phone": "0328532172",
    "start_year": 2026,
    "language": "Fr"
  },
  {
    "id": "3333738",
    "company": "Pharmacies BENU SA",
    "job": "Assistant/e en pharmacie CFC",
    "canton": "NE",
    "city": "Corcelles NE",
    "lat": 46.98484802246094,
    "lng": 6.881504535675049,
    "address": "Grand-Rue   10 2035 Corcelles NE",
    "postal": "2035",
    "positions": 1,
    "contact_email": "corcelles-de-la-cote@benu.ch",
    "contact_phone": "0327311347",
    "start_year": 2026,
    "language": "Fr"
  },
  {
    "id": "3333739",
    "company": "Pharmacie Littoral-Centre SA",
    "job": "Assistant/e en pharmacie CFC",
    "canton": "NE",
    "city": "Cortaillod",
    "lat": 46.94438171386719,
    "lng": 6.843123435974121,
    "address": "Chemin de Ronzi  2 2016 Cortaillod",
    "postal": "2016",
    "positions": 1,
    "contact_email": "pli@ovan.ch",
    "contact_phone": "0328421644",
    "start_year": 2026,
    "language": "Fr"
  },
  {
    "id": "3333729",
    "company": "COOP Vitality SA - Pharmacie de Fontainemelon",
    "job": "Assistant/e en pharmacie CFC",
    "canton": "NE",
    "city": "Fontainemelon",
    "lat": 47.05742645263672,
    "lng": 6.892918586730957,
    "address": "Avenue Robert  12 2052 Fontainemelon",
    "postal": "2052",
    "positions": 1,
    "contact_email": "pharmacie.fontainemelon@coop-vitality.ch",
    "contact_phone": "0588788110",
    "start_year": 2026,
    "language": "Fr"
  },
  {
    "id": "3334738",
    "company": "pharmacieplus du Val-de-Ruz SA",
    "job": "Assistant/e en pharmacie CFC",
    "canton": "NE",
    "city": "Fontainemelon",
    "lat": 47.055782318115234,
    "lng": 6.8887739181518555,
    "address": "Rue du Centre  2 2052 Fontainemelon",
    "postal": "2052",
    "positions": 1,
    "contact_email": "valderuz.ne@pharmacieplus.ch",
    "contact_phone": "0328532256",
    "start_year": 2026,
    "language": "Fr"
  },
  {
    "id": "3333725",
    "company": "Pharmacie Amavita (Espacité) - GaleniCare SA",
    "job": "Assistant/e en pharmacie CFC",
    "canton": "NE",
    "city": "La Chaux-de-Fonds",
    "lat": 47.10285949707031,
    "lng": 6.829083442687988,
    "address": "Espacité   5 2300 La Chaux-de-Fonds",
    "postal": "2300",
    "positions": 1,
    "contact_email": "ama023@amavita.ch",
    "contact_phone": "0588781790",
    "start_year": 2026,
    "language": "Fr"
  },
  {
    "id": "3334730",
    "company": "Pharmacie Pillonel SA",
    "job": "Assistant/e en pharmacie CFC",
    "canton": "NE",
    "city": "La Chaux-de-Fonds",
    "lat": 47.10065841674805,
    "lng": 6.825314998626709,
    "address": "Rue du Balancier  7 2300 La Chaux-de-Fonds",
    "postal": "2300",
    "positions": 1,
    "contact_email": "info@pharmaciepillonel.ch",
    "contact_phone": "0329108210",
    "start_year": 2026,
    "language": "Fr"
  },
  {
    "id": "3250045",
    "company": "Pharmacieplus des Forges sa",
    "job": "Assistant/e en pharmacie CFC",
    "canton": "NE",
    "city": "La Chaux-de-Fonds",
    "lat": 47.093929290771484,
    "lng": 6.809955596923828,
    "address": "Avenue Charles-Naine 2a 2300 La Chaux-de-Fonds",
    "postal": "2300",
    "positions": 1,
    "contact_email": "forges.ne@ovan.ch",
    "contact_phone": "0329269544",
    "start_year": 2026,
    "language": "Fr"
  },
  {
    "id": "3334740",
    "company": "Pharmacie Amavita La Poste - GaleniCare S.A.",
    "job": "Assistant/e en pharmacie CFC",
    "canton": "NE",
    "city": "Le Locle",
    "lat": 47.057342529296875,
    "lng": 6.749695777893066,
    "address": "Rue Bournot   17b 2400 Le Locle",
    "postal": "2400",
    "positions": 1,
    "contact_email": "ama036@amavita.ch",
    "contact_phone": "0588781900",
    "start_year": 2026,
    "language": "Fr"
  },
  {
    "id": "3333733",
    "company": "Pharmacie du Casino Le Locle SA",
    "job": "Assistant/e en pharmacie CFC",
    "canton": "NE",
    "city": "Le Locle",
    "lat": 47.05656814575195,
    "lng": 6.747413635253906,
    "address": "Rue Daniel-Jean-Richard  39 2400 Le Locle",
    "postal": "2400",
    "positions": 1,
    "contact_email": "pcl@ovan.ch",
    "contact_phone": "0329318866",
    "start_year": 2026,
    "language": "Fr"
  },
  {
    "id": "3333758",
    "company": "Pharmacieplus du Bourg Marin SA",
    "job": "Assistant/e en pharmacie CFC",
    "canton": "NE",
    "city": "Marin-Epagnier",
    "lat": 47.00944900512695,
    "lng": 7.000936508178711,
    "address": "Auguste-Bachelin   11 2074 Marin-Epagnier",
    "postal": "2074",
    "positions": 1,
    "contact_email": "bourg.ne@pharmacieplus.ch",
    "contact_phone": "0327534488",
    "start_year": 2026,
    "language": "Fr"
  },
  {
    "id": "3334677",
    "company": "Sun Store Marin Centre - GaleniCare SA",
    "job": "Assistant/e en pharmacie CFC",
    "canton": "NE",
    "city": "Marin-Epagnier",
    "lat": 47.01120376586914,
    "lng": 7.006219863891602,
    "address": "Fleur-de-Lys   26 2074 Marin-Epagnier",
    "postal": "2074",
    "positions": 1,
    "contact_email": "pharmacie.marin-centre@sunstore.ch",
    "contact_phone": "0588785630",
    "start_year": 2026,
    "language": "Fr"
  },
  {
    "id": "3333731",
    "company": "COOP Vitality SA - Pharmacie de la Maladière",
    "job": "Assistant/e en pharmacie CFC",
    "canton": "NE",
    "city": "Neuchâtel",
    "lat": 46.99593734741211,
    "lng": 6.944793701171875,
    "address": "Rue Pierre-à-Mazel   10 2000 Neuchâtel",
    "postal": "2000",
    "positions": 1,
    "contact_email": "pharmacie.neuchatel@coop-vitality.ch",
    "contact_phone": "0588788200",
    "start_year": 2026,
    "language": "Fr"
  },
  {
    "id": "3334624",
    "company": "Pharmacie Amavita - GaleniCare SA",
    "job": "Assistant/e en pharmacie CFC",
    "canton": "NE",
    "city": "Neuchâtel",
    "lat": 47.00398635864258,
    "lng": 6.955489635467529,
    "address": "Portes-Rouges   46 2000 Neuchâtel",
    "postal": "2000",
    "positions": 1,
    "contact_email": "ama021@amavita.ch",
    "contact_phone": "0588782100",
    "start_year": 2026,
    "language": "Fr"
  },
  {
    "id": "3334726",
    "company": "Pharmacie Amavita Tripet - GaleniCare SA.",
    "job": "Assistant/e en pharmacie CFC",
    "canton": "NE",
    "city": "Neuchâtel",
    "lat": 46.990997314453125,
    "lng": 6.929181098937988,
    "address": "Rue du Seyon   8 2000 Neuchâtel",
    "postal": "2000",
    "positions": 2,
    "contact_email": "pharmacie.tripet@amavita.ch",
    "contact_phone": "0588782120",
    "start_year": 2026,
    "language": "Fr"
  },
  {
    "id": "3333724",
    "company": "Pharmacie Marti Place Pury",
    "job": "Assistant/e en pharmacie CFC",
    "canton": "NE",
    "city": "Neuchâtel",
    "lat": 46.99075698852539,
    "lng": 6.929047107696533,
    "address": "Rue du Seyon  1 2000 Neuchâtel",
    "postal": "2000",
    "positions": 1,
    "contact_email": "placepury@pharmaciemarti.ch",
    "contact_phone": "0327291160",
    "start_year": 2026,
    "language": "Fr"
  },
  {
    "id": "3333720",
    "company": "Pharmacieplus de la Rosière",
    "job": "Assistant/e en pharmacie CFC",
    "canton": "NE",
    "city": "Neuchâtel",
    "lat": 46.99184036254883,
    "lng": 6.916476726531982,
    "address": "Rue des Parcs  84 2000 Neuchâtel",
    "postal": "2000",
    "positions": 1,
    "contact_email": "rosiere@pharmacieplus.ch",
    "contact_phone": "0327244144",
    "start_year": 2026,
    "language": "Fr"
  },
  {
    "id": "3333757",
    "company": "Pharmacieplus de l'Orangerie SA",
    "job": "Assistant/e en pharmacie CFC",
    "canton": "NE",
    "city": "Neuchâtel",
    "lat": 46.99343490600586,
    "lng": 6.934360980987549,
    "address": "Ruelle du Peyrou  2 2000 Neuchâtel",
    "postal": "2000",
    "positions": 1,
    "contact_email": "orangerie.ne@ovan.ch",
    "contact_phone": "0327251204",
    "start_year": 2026,
    "language": "Fr"
  },
  {
    "id": "3333777",
    "company": "Pharmacieplus de la Grand-Rue",
    "job": "Assistant/e en pharmacie CFC",
    "canton": "NE",
    "city": "Peseux",
    "lat": 46.98792266845703,
    "lng": 6.891140460968018,
    "address": "Grand-Rue   42 2034 Peseux",
    "postal": "2034",
    "positions": 1,
    "contact_email": "pharm.grandrue@ovan.ch",
    "contact_phone": "0327312010",
    "start_year": 2026,
    "language": "Fr"
  },
  {
    "id": "3293953",
    "company": "Résidence Les Pommiers SA",
    "job": "Assistant/e en soins et santé communautaire CFC",
    "canton": "NE",
    "city": "Bevaix",
    "lat": 46.93091583251953,
    "lng": 6.820817947387695,
    "address": "Chemin des Pommiers  25 2022 Bevaix",
    "postal": "2022",
    "positions": 1,
    "contact_email": "info@omeris.swiss",
    "contact_phone": "0328462757",
    "start_year": 2026,
    "language": "Fr"
  },
  {
    "id": "3294417",
    "company": "Home médicalisé Dubied",
    "job": "Assistant/e en soins et santé communautaire CFC",
    "canton": "NE",
    "city": "Couvet",
    "lat": 46.923065185546875,
    "lng": 6.625115871429443,
    "address": "Rue de Fontenelle 19 2108 Couvet",
    "postal": "2108",
    "positions": 1,
    "contact_email": "home.dubied@ne.ch",
    "contact_phone": "0328640101",
    "start_year": 2026,
    "language": "Fr"
  },
  {
    "id": "3293951",
    "company": "Home médicalisé Les Sugits",
    "job": "Assistant/e en soins et santé communautaire CFC",
    "canton": "NE",
    "city": "Fleurier",
    "lat": 46.89974594116211,
    "lng": 6.5784687995910645,
    "address": "Rue de l'Hôpital 31 2114 Fleurier",
    "postal": "2114",
    "positions": 1,
    "contact_email": "ems.lessugits@ne.ch",
    "contact_phone": "0328621300",
    "start_year": 2026,
    "language": "Fr"
  },
  {
    "id": "3293924",
    "company": "Tertianum Chantevent",
    "job": "Assistant/e en soins et santé communautaire CFC",
    "canton": "NE",
    "city": "Fresens",
    "lat": 46.89014434814453,
    "lng": 6.749159336090088,
    "address": "Sur l'Arcie 7 2027 Fresens",
    "postal": "2027",
    "positions": 1,
    "contact_email": "chantevent@tertianum.ch",
    "contact_phone": "0328363040",
    "start_year": 2026,
    "language": "Fr"
  },
  {
    "id": "3293995",
    "company": "EMS La Sombaille",
    "job": "Assistant/e en soins et santé communautaire CFC",
    "canton": "NE",
    "city": "La Chaux-de-Fonds",
    "lat": 47.11207580566406,
    "lng": 6.825550079345703,
    "address": "Rue des XXII-Cantons  2 2301 La Chaux-de-Fonds",
    "postal": "2301",
    "positions": 1,
    "contact_email": "Home.Sombaille@ne.ch",
    "contact_phone": "0329670111",
    "start_year": 2026,
    "language": "Fr"
  },
  {
    "id": "3378500",
    "company": "Foyer Handicap des Montagnes Neuchâteloises",
    "job": "Assistant/e en soins et santé communautaire CFC",
    "canton": "NE",
    "city": "La Chaux-de-Fonds",
    "lat": 47.10821533203125,
    "lng": 6.8318562507629395,
    "address": "Rue des Moulins  22 2300 La Chaux-de-Fonds",
    "postal": "2300",
    "positions": 1,
    "contact_email": "recrutement.foyerhandicap@ne.ch",
    "contact_phone": "0327200300",
    "start_year": 2026,
    "language": "Fr"
  },
  {
    "id": "3293948",
    "company": "Fondation La Résidence",
    "job": "Assistant/e en soins et santé communautaire CFC",
    "canton": "NE",
    "city": "Le Locle",
    "lat": 47.05492401123047,
    "lng": 6.739338397979736,
    "address": "Rue des Billodes  40 2400 Le Locle",
    "postal": "2400",
    "positions": 1,
    "contact_email": "fondation.residence@ne.ch",
    "contact_phone": "0329332111",
    "start_year": 2026,
    "language": "Fr"
  },
  {
    "id": "3294137",
    "company": "Home Le Pivert",
    "job": "Assistant/e en soins et santé communautaire CFC",
    "canton": "NE",
    "city": "Les Geneveys-sur-Coffrane",
    "lat": 47.02167510986328,
    "lng": 6.8528242111206055,
    "address": "Route du Vanel 21 2206 Les Geneveys-sur-Coffrane",
    "postal": "2206",
    "positions": 1,
    "contact_email": "rocio.aubry@omeris.swiss",
    "contact_phone": "0328571050",
    "start_year": 2026,
    "language": "Fr"
  },
  {
    "id": "3336969",
    "company": "Fondation Foyer Handicap",
    "job": "Assistant/e en soins et santé communautaire CFC",
    "canton": "NE",
    "city": "Neuchâtel",
    "lat": 46.995853424072266,
    "lng": 6.941803932189941,
    "address": "Maladière   33 2000 Neuchâtel",
    "postal": "2000",
    "positions": 2,
    "contact_email": "recrutement.foyerhandicap@ne.ch",
    "contact_phone": "0327200300",
    "start_year": 2026,
    "language": "Fr"
  },
  {
    "id": "3294414",
    "company": "Home médicalisé Les Charmettes",
    "job": "Assistant/e en soins et santé communautaire CFC",
    "canton": "NE",
    "city": "Neuchâtel",
    "lat": 46.98814010620117,
    "lng": 6.905224323272705,
    "address": "Charmettes 8 2000 Neuchâtel",
    "postal": "2000",
    "positions": 2,
    "contact_email": "home.lescharmettes@ne.ch",
    "contact_phone": "0327329191",
    "start_year": 2026,
    "language": "Fr"
  },
  {
    "id": "3294419",
    "company": "Résidence Le Castel",
    "job": "Assistant/e en soins et santé communautaire CFC",
    "canton": "NE",
    "city": "St-Blaise",
    "lat": 47.01361083984375,
    "lng": 6.989537715911865,
    "address": "Rue du Vigner  13 2072 St-Blaise",
    "postal": "2072",
    "positions": 1,
    "contact_email": "info@le-castel.ch",
    "contact_phone": "0325545000",
    "start_year": 2026,
    "language": "Fr"
  },
  {
    "id": "3167816",
    "company": "Rubattel et Weyermann S.A.",
    "job": "Assistant/e en traitement de surface (Électroplastie) AFP",
    "canton": "NE",
    "city": "La Chaux-de-Fonds",
    "lat": 47.191349029541016,
    "lng": 7.198330402374268,
    "address": "Rue Louis-J.-Chevrolet  41 2300 La Chaux-de-Fonds",
    "postal": "2300",
    "positions": 1,
    "contact_email": "recrutement@universo.ch",
    "contact_phone": "0329108484",
    "start_year": 2026,
    "language": "Fr"
  },
  {
    "id": "3334022",
    "company": "Medbase AG Neuchâtel La Côte",
    "job": "Assistant/e médical/e CFC",
    "canton": "NE",
    "city": "Corcelles NE",
    "lat": 46.98335647583008,
    "lng": 6.875166893005371,
    "address": "Rue du Petit-Berne 14 2035 Corcelles NE",
    "postal": "2035",
    "positions": 1,
    "contact_email": "Kaltrina.Ibrahimi@medbase.ch",
    "contact_phone": "0327271100",
    "start_year": 2026,
    "language": "Fr"
  },
  {
    "id": "3286544",
    "company": "Cabinet pédiatrique K. Schneider et P. Perret",
    "job": "Assistant/e médical/e CFC",
    "canton": "NE",
    "city": "Neuchâtel",
    "lat": 46.99368667602539,
    "lng": 6.93794584274292,
    "address": "Rue Coulon  2 2000 Neuchâtel",
    "postal": "2000",
    "positions": 1,
    "contact_email": "",
    "contact_phone": "0327251929",
    "start_year": 2026,
    "language": "Fr"
  },
  {
    "id": "3267271",
    "company": "Garderie La Tortue d'Eau",
    "job": "Assistant/e socio-éducatif/ve (Enfants) CFC",
    "canton": "NE",
    "city": "Bôle",
    "lat": 46.96710968017578,
    "lng": 6.8464250564575195,
    "address": "Rue du Verger  10 2014 Bôle",
    "postal": "2014",
    "positions": 1,
    "contact_email": "info@latortuedeau.ch",
    "contact_phone": "0328414468",
    "start_year": 2026,
    "language": "Fr"
  },
  {
    "id": "3301175",
    "company": "Administration communale de Val-de-Ruz",
    "job": "Assistant/e socio-éducatif/ve (Enfants) CFC",
    "canton": "NE",
    "city": "Cernier",
    "lat": 47.059669494628906,
    "lng": 6.902095317840576,
    "address": "Rue de l'Epervier 6 2053 Cernier",
    "postal": "2053",
    "positions": 5,
    "contact_email": "rh.val-de-ruz@ne.ch",
    "contact_phone": "0328865631",
    "start_year": 2026,
    "language": "Fr"
  },
  {
    "id": "3301202",
    "company": "Ville de La Chaux-de-Fonds",
    "job": "Assistant/e socio-éducatif/ve (Enfants) CFC",
    "canton": "NE",
    "city": "La Chaux-de-Fonds",
    "lat": 47.10295867919922,
    "lng": 6.828466415405273,
    "address": "Rue de la Serre 23 2300 La Chaux-de-Fonds",
    "postal": "2300",
    "positions": 2,
    "contact_email": "SRH.VCH@ne.ch",
    "contact_phone": "0329676281",
    "start_year": 2026,
    "language": "Fr"
  },
  {
    "id": "3267198",
    "company": "Association Part-âges",
    "job": "Assistant/e socio-éducatif/ve (Enfants) CFC",
    "canton": "NE",
    "city": "Le Landeron",
    "lat": 47.055049896240234,
    "lng": 7.062210559844971,
    "address": "Route de Neuchâtel 9 2525 Le Landeron",
    "postal": "2525",
    "positions": 1,
    "contact_email": "info@part-ages.ch",
    "contact_phone": "0327512567",
    "start_year": 2026,
    "language": "Fr"
  },
  {
    "id": "3344169",
    "company": "Pension Le Logis,",
    "job": "Assistant/e socio-éducatif/ve (Personnes âgées) CFC",
    "canton": "NE",
    "city": "Dombresson",
    "lat": 47.21009826660156,
    "lng": 7.008234024047852,
    "address": " Grand'Rue 25",
    "postal": "2056",
    "positions": 1,
    "contact_email": "pension.lelogis@ne.ch",
    "contact_phone": "0328540854",
    "start_year": 2026,
    "language": "Fr"
  },
  {
    "id": "3328102",
    "company": "Home Le Pivert",
    "job": "Assistant/e socio-éducatif/ve (Personnes âgées) CFC",
    "canton": "NE",
    "city": "Les Geneveys-sur-Coffrane",
    "lat": 47.02167510986328,
    "lng": 6.8528242111206055,
    "address": "Route du Vanel 21 2206 Les Geneveys-sur-Coffrane",
    "postal": "2206",
    "positions": 1,
    "contact_email": "rocio.aubry@omeris.swiss",
    "contact_phone": "0328571050",
    "start_year": 2026,
    "language": "Fr"
  },
  {
    "id": "3267031",
    "company": "Fondation Ressource",
    "job": "Assistant/e socio-éducatif/ve (Personnes en situation de handicap) CFC",
    "canton": "NE",
    "city": "La Côte-aux-Fées",
    "lat": 46.86717224121094,
    "lng": 6.490414619445801,
    "address": "Les Bolles-du-Temple 33-35 2117 La Côte-aux-Fées",
    "postal": "2117",
    "positions": 1,
    "contact_email": "foyer.andre@ne.ch",
    "contact_phone": "0328868090",
    "start_year": 2026,
    "language": "Fr"
  },
  {
    "id": "3301232",
    "company": "Fondation Les Perce-Neige",
    "job": "Assistant/e socio-éducatif/ve (Variante généraliste) CFC",
    "canton": "NE",
    "city": "Les Hauts-Geneveys",
    "lat": 47.04218673706055,
    "lng": 6.868821620941162,
    "address": "Chemin Mon Loisir 23e 2208 Les Hauts-Geneveys",
    "postal": "2208",
    "positions": 17,
    "contact_email": "",
    "contact_phone": "0328866700",
    "start_year": 2026,
    "language": "Fr"
  },
  {
    "id": "3324663",
    "company": "Marti Arc Jura SA",
    "job": "Assistant/e-constructeur/trice de routes AFP",
    "canton": "NE",
    "city": "Cornaux NE",
    "lat": 47.03324890136719,
    "lng": 7.0303730964660645,
    "address": "A Bugeon - 2087 Cornaux NE",
    "postal": "2087",
    "positions": 1,
    "contact_email": "cornaux@martisa.ch",
    "contact_phone": "0327580000",
    "start_year": 2026,
    "language": "Fr"
  },
  {
    "id": "3286657",
    "company": "S. Facchinetti S.A.",
    "job": "Assistant/e-constructeur/trice de routes AFP",
    "canton": "NE",
    "city": "Neuchâtel 2",
    "lat": 47.00664138793945,
    "lng": 6.968175888061523,
    "address": "Route des Gouttes-d'Or 78 2002 Neuchâtel 2",
    "postal": "2002",
    "positions": 1,
    "contact_email": "info@facchinettisa.ch",
    "contact_phone": "0327201212",
    "start_year": 2026,
    "language": "Fr"
  },
  {
    "id": "3418566",
    "company": "CAAJ",
    "job": "Automaticien/ne CFC",
    "canton": "NE",
    "city": "La Chaux-de-Fonds",
    "lat": 47.0859260559082,
    "lng": 6.801539897918701,
    "address": "Boulevard des Eplatures 39 2300 La Chaux-de-Fonds",
    "postal": "2300",
    "positions": 1,
    "contact_email": "info@caaj.ch",
    "contact_phone": "0329263050",
    "start_year": 2026,
    "language": "Fr"
  },
  {
    "id": "3410750",
    "company": "IMA Automation Switzerland SA",
    "job": "Automaticien/ne CFC",
    "canton": "NE",
    "city": "La Chaux-de-Fonds",
    "lat": 47.087013244628906,
    "lng": 6.811781883239746,
    "address": "Allée du Quartz  12 2300 La Chaux-de-Fonds",
    "postal": "2300",
    "positions": 2,
    "contact_email": "hr.automation.ch@ima.it",
    "contact_phone": "0329247111",
    "start_year": 2026,
    "language": "Fr"
  },
  {
    "id": "3410774",
    "company": "Login formation professionnelle SA",
    "job": "Automaticien/ne CFC",
    "canton": "NE",
    "city": "Neuchâtel",
    "lat": 46.53474044799805,
    "lng": 6.583308219909668,
    "address": "Rue de la gare de Triage 5 1020 Renens VD",
    "postal": "2000",
    "positions": 1,
    "contact_email": "",
    "contact_phone": "00848822422",
    "start_year": 2026,
    "language": "Fr"
  },
  {
    "id": "3410744",
    "company": "Philip Morris Products S.A.",
    "job": "Automaticien/ne CFC",
    "canton": "NE",
    "city": "Neuchâtel",
    "lat": 46.9805908203125,
    "lng": 6.900811195373535,
    "address": "Quai Jeanrenaud 3 2000 Neuchâtel",
    "postal": "2000",
    "positions": 1,
    "contact_email": "geraldine.chatelain@pmi.com",
    "contact_phone": "",
    "start_year": 2026,
    "language": "Fr"
  },
  {
    "id": "3294427",
    "company": "Centre orthopédique Neuchâtel S.A.",
    "job": "Bottier/ière-orthopédiste CFC",
    "canton": "NE",
    "city": "Neuchâtel",
    "lat": 46.9921760559082,
    "lng": 6.933234691619873,
    "address": "Fbg du Lac  11 2000 Neuchâtel",
    "postal": "2000",
    "positions": 1,
    "contact_email": "k.mazza@fbg11.ch",
    "contact_phone": "0327250088",
    "start_year": 2026,
    "language": "Fr"
  },
  {
    "id": "3174482",
    "company": "Coop La Chaux-de-Fonds Eplatures",
    "job": "Boulanger/ère-pâtissier/ière-confiseur/euse (Boulangerie-pâtisserie) CFC",
    "canton": "NE",
    "city": "La Chaux-de-Fonds",
    "lat": 47.08840560913086,
    "lng": 6.80275821685791,
    "address": "Boulevard des Eplatures 20 2300 La Chaux-de-Fonds",
    "postal": "2300",
    "positions": 1,
    "contact_email": "",
    "contact_phone": "",
    "start_year": 2026,
    "language": "Fr"
  },
  {
    "id": "3193521",
    "company": "Du Pain Ô Chocolat by Mitaillé Sàrl",
    "job": "Boulanger/ère-pâtissier/ière-confiseur/euse (Boulangerie-pâtisserie) CFC",
    "canton": "NE",
    "city": "La Chaux-de-Fonds",
    "lat": 47.10051345825195,
    "lng": 6.8271050453186035,
    "address": "Rue Daniel-JeanRichard 22 2300 La Chaux-de-Fonds",
    "postal": "2300",
    "positions": 2,
    "contact_email": "contact@dupainochocolat.ch",
    "contact_phone": "0329130966",
    "start_year": 2026,
    "language": "Fr"
  },
  {
    "id": "3286451",
    "company": "Confiserie Schmid S.A.",
    "job": "Boulanger/ère-pâtissier/ière-confiseur/euse (Boulangerie-pâtisserie) CFC",
    "canton": "NE",
    "city": "Neuchâtel",
    "lat": 46.99040985107422,
    "lng": 6.929623126983643,
    "address": "Rue de la Treille  9 2000 Neuchâtel",
    "postal": "2000",
    "positions": 1,
    "contact_email": "seb.heget@gmail.com",
    "contact_phone": "0327251444",
    "start_year": 2026,
    "language": "Fr"
  },
  {
    "id": "3167435",
    "company": "Carrosserie de Cornaux Sàrl",
    "job": "Carrossier/ière réparateur/trice CFC",
    "canton": "NE",
    "city": "Cornaux NE",
    "lat": 47.039066314697266,
    "lng": 7.025864601135254,
    "address": "Chemin des Nageux 5 2087 Cornaux NE",
    "postal": "2087",
    "positions": 1,
    "contact_email": "c.cornaux@hotmail.com",
    "contact_phone": "0327571737",
    "start_year": 2026,
    "language": "Fr"
  },
  {
    "id": "3286334",
    "company": "Carrosserie de Cornaux Sàrl",
    "job": "Carrossier/ière-peintre CFC",
    "canton": "NE",
    "city": "Cornaux NE",
    "lat": 47.039066314697266,
    "lng": 7.025864601135254,
    "address": "Chemin des Nageux 5 2087 Cornaux NE",
    "postal": "2087",
    "positions": 1,
    "contact_email": "c.cornaux@hotmail.com",
    "contact_phone": "0327571737",
    "start_year": 2026,
    "language": "Fr"
  },
  {
    "id": "3286335",
    "company": "Carrosserie de Cornaux Sàrl",
    "job": "Carrossier/ière-tôlier/ière CFC",
    "canton": "NE",
    "city": "Cornaux NE",
    "lat": 47.039066314697266,
    "lng": 7.025864601135254,
    "address": "Chemin des Nageux 5 2087 Cornaux NE",
    "postal": "2087",
    "positions": 1,
    "contact_email": "c.cornaux@hotmail.com",
    "contact_phone": "0327571737",
    "start_year": 2026,
    "language": "Fr"
  },
  {
    "id": "3294278",
    "company": "Automobiles Senn S.A.",
    "job": "Carrossier/ière-tôlier/ière CFC",
    "canton": "NE",
    "city": "La Chaux-de-Fonds",
    "lat": 47.09428405761719,
    "lng": 6.821369647979736,
    "address": "Rue des Crêtets 90 2300 La Chaux-de-Fonds",
    "postal": "2300",
    "positions": 1,
    "contact_email": "info@sennautos.ch",
    "contact_phone": "0329259292",
    "start_year": 2026,
    "language": "Fr"
  },
  {
    "id": "3340973",
    "company": "Favre & Perret Sàrl",
    "job": "Charpentier/ière CFC",
    "canton": "NE",
    "city": "Cernier",
    "lat": 47.060821533203125,
    "lng": 6.908946990966797,
    "address": "La Taille 1A 2053 Cernier",
    "postal": "2053",
    "positions": 1,
    "contact_email": "info@favre-perret.ch",
    "contact_phone": "0787242984",
    "start_year": 2026,
    "language": "Fr"
  },
  {
    "id": "3209244",
    "company": "Charpente Menuiserie Tschäppät & Moret S.A.",
    "job": "Charpentier/ière CFC",
    "canton": "NE",
    "city": "Cornaux NE",
    "lat": 47.03873062133789,
    "lng": 7.025574207305908,
    "address": "Chemin des Nageux 3 2087 Cornaux NE",
    "postal": "2087",
    "positions": 1,
    "contact_email": "info@tschappat-moret.ch",
    "contact_phone": "0327231140",
    "start_year": 2026,
    "language": "Fr"
  },
  {
    "id": "3206897",
    "company": "Aubert Construction Bois Sàrl",
    "job": "Charpentier/ière CFC",
    "canton": "NE",
    "city": "Cortaillod",
    "lat": 46.94382095336914,
    "lng": 6.839884281158447,
    "address": "Chemin des Echelles  7 2016 Cortaillod",
    "postal": "2016",
    "positions": 1,
    "contact_email": "aubert@aubert-cb.ch",
    "contact_phone": "0328412484",
    "start_year": 2026,
    "language": "Fr"
  },
  {
    "id": "3209369",
    "company": "ADR Toitures - Energies SA",
    "job": "Charpentier/ière CFC",
    "canton": "NE",
    "city": "Fontaines NE",
    "lat": 47.043968200683594,
    "lng": 6.89813232421875,
    "address": "Rue de l'Industrie  1 2046 Fontaines NE",
    "postal": "2046",
    "positions": 1,
    "contact_email": "as@adr.ch",
    "contact_phone": "0327200556",
    "start_year": 2026,
    "language": "Fr"
  },
  {
    "id": "3208889",
    "company": "Gaille S.A.",
    "job": "Charpentier/ière CFC",
    "canton": "NE",
    "city": "Fresens",
    "lat": 46.88809585571289,
    "lng": 6.749453067779541,
    "address": "Route de Saint-Aubin 3 2027 Fresens",
    "postal": "2027",
    "positions": 2,
    "contact_email": "m.reift@gaille.ch",
    "contact_phone": "0328352828",
    "start_year": 2026,
    "language": "Fr"
  },
  {
    "id": "3225433",
    "company": "Ducommun Construction Bois Sàrl",
    "job": "Charpentier/ière CFC",
    "canton": "NE",
    "city": "La Brévine",
    "lat": 46.983009338378906,
    "lng": 6.607994556427002,
    "address": "Clos-Rognon 5a 2406 La Brévine",
    "postal": "2406",
    "positions": 1,
    "contact_email": "info@ducommunbois.ch",
    "contact_phone": "0792188003",
    "start_year": 2026,
    "language": "Fr"
  },
  {
    "id": "3207288",
    "company": "Georges-André Schneiter",
    "job": "Charpentier/ière CFC",
    "canton": "NE",
    "city": "Le Brouillet",
    "lat": 46.95820236206055,
    "lng": 6.541520595550537,
    "address": "Chez Petoud  2 2406 Le Brouillet",
    "postal": "2406",
    "positions": 1,
    "contact_email": "georgeschneiter@bluewin.ch",
    "contact_phone": "0329351248",
    "start_year": 2026,
    "language": "Fr"
  },
  {
    "id": "3249526",
    "company": "Coiffure Innova - Calvo Gashi Cristina",
    "job": "Coiffeur/euse CFC",
    "canton": "NE",
    "city": "La Chaux-de-Fonds",
    "lat": 47.10286331176758,
    "lng": 6.833165645599365,
    "address": "Hôtel-de-Ville  5 2300 La Chaux-de-Fonds",
    "postal": "2300",
    "positions": 1,
    "contact_email": "cricri.81@hotmail.com",
    "contact_phone": "0329683515",
    "start_year": 2026,
    "language": "Fr"
  },
  {
    "id": "3249258",
    "company": "Coiffure non mais oui Sàrl",
    "job": "Coiffeur/euse CFC",
    "canton": "NE",
    "city": "Neuchâtel",
    "lat": 46.99190139770508,
    "lng": 6.928408622741699,
    "address": "Rue des Moulins  3 2000 Neuchâtel",
    "postal": "2000",
    "positions": 1,
    "contact_email": "marcialdroz@hotmail.com",
    "contact_phone": "0327252982",
    "start_year": 2026,
    "language": "Fr"
  },
  {
    "id": "3234773",
    "company": "Coiffure Printemps - Badalucco Anna-Maria",
    "job": "Coiffeur/euse CFC",
    "canton": "NE",
    "city": "Neuchâtel",
    "lat": 46.995216369628906,
    "lng": 6.941749572753906,
    "address": "Pierre-à-Mazel  11 2000 Neuchâtel",
    "postal": "2000",
    "positions": 1,
    "contact_email": "annabada8@gmail.com",
    "contact_phone": "0327240422",
    "start_year": 2026,
    "language": "Fr"
  },
  {
    "id": "3234775",
    "company": "Dessange Paris - Barcarolle Sàrl",
    "job": "Coiffeur/euse CFC",
    "canton": "NE",
    "city": "Neuchâtel",
    "lat": 46.99075698852539,
    "lng": 6.929047107696533,
    "address": "Rue du Seyon  1 2000 Neuchâtel",
    "postal": "2000",
    "positions": 1,
    "contact_email": "carole.gretillat@dessange-neuchatel.ch",
    "contact_phone": "0327241818",
    "start_year": 2026,
    "language": "Fr"
  },
  {
    "id": "3250719",
    "company": "Tamara Coiffure & Barbier",
    "job": "Coiffeur/euse CFC",
    "canton": "NE",
    "city": "Neuchâtel",
    "lat": 46.991371154785156,
    "lng": 6.932066440582275,
    "address": "Premier-Mars   7 2000 Neuchâtel",
    "postal": "2000",
    "positions": 2,
    "contact_email": "info@tamaracoiffure.com",
    "contact_phone": "0327242021",
    "start_year": 2026,
    "language": "Fr"
  },
  {
    "id": "3249835",
    "company": "Pas Banal",
    "job": "Coiffeur/euse CFC",
    "canton": "NE",
    "city": "Peseux",
    "lat": 46.987632751464844,
    "lng": 6.88948917388916,
    "address": "Grand Rue  29 2034 Peseux",
    "postal": "2034",
    "positions": 1,
    "contact_email": "maria@pasbanal.ch",
    "contact_phone": "0327311606",
    "start_year": 2026,
    "language": "Fr"
  },
  {
    "id": "3249847",
    "company": "deux heures plus tard...",
    "job": "Coiffeur/euse CFC",
    "canton": "NE",
    "city": "St-Blaise",
    "lat": 47.01298904418945,
    "lng": 6.987148761749268,
    "address": "Grand Rue  21 2072 St-Blaise",
    "postal": "2072",
    "positions": 1,
    "contact_email": "david@2heuresplustard.com",
    "contact_phone": "0327530354",
    "start_year": 2026,
    "language": "Fr"
  },
  {
    "id": "3336342",
    "company": "Getaz-Miauton S.A.",
    "job": "Conducteur/trice de véhicules lourds CFC",
    "canton": "NE",
    "city": "Cressier NE",
    "lat": 47.04427719116211,
    "lng": 7.028903484344482,
    "address": "Malpierres   1A 2088 Cressier NE",
    "postal": "2088",
    "positions": 1,
    "contact_email": "",
    "contact_phone": "",
    "start_year": 2026,
    "language": "Fr"
  },
  {
    "id": "3172603",
    "company": "Ville de La Chaux-de-Fonds",
    "job": "Conducteur/trice de véhicules lourds CFC",
    "canton": "NE",
    "city": "La Chaux-de-Fonds",
    "lat": 47.10295867919922,
    "lng": 6.828466415405273,
    "address": "Rue de la Serre 23 2300 La Chaux-de-Fonds",
    "postal": "2300",
    "positions": 1,
    "contact_email": "SRH.VCH@ne.ch",
    "contact_phone": "0329676281",
    "start_year": 2026,
    "language": "Fr"
  },
  {
    "id": "3336339",
    "company": "CreTriRec Sàrl",
    "job": "Conducteur/trice de véhicules lourds CFC",
    "canton": "NE",
    "city": "Neuchâtel",
    "lat": 46.989036560058594,
    "lng": 6.908928871154785,
    "address": "Rue des Tunnels 13 2000 Neuchâtel",
    "postal": "2000",
    "positions": 1,
    "contact_email": "contact@cretrirec.com",
    "contact_phone": "0327259312",
    "start_year": 2026,
    "language": "Fr"
  },
  {
    "id": "3300291",
    "company": "Ville de Neuchâtel - SRH",
    "job": "Conducteur/trice de véhicules lourds CFC",
    "canton": "NE",
    "city": "Peseux",
    "lat": 46.986209869384766,
    "lng": 6.8873395919799805,
    "address": "Rue Ernest-Roulet   2 2034 Peseux",
    "postal": "2034",
    "positions": 1,
    "contact_email": "Rh.vdn@ne.ch",
    "contact_phone": "0327177147",
    "start_year": 2026,
    "language": "Fr"
  },
  {
    "id": "3410851",
    "company": "DIXI Services SA",
    "job": "Constructeur/trice d'appareils industriels CFC",
    "canton": "NE",
    "city": "Le Locle",
    "lat": 47.053218841552734,
    "lng": 6.739632606506348,
    "address": "Avenue du Technicum   42 2400 Le Locle",
    "postal": "2400",
    "positions": 1,
    "contact_email": "rania.bousmina@dixi.ch",
    "contact_phone": "0329335185",
    "start_year": 2026,
    "language": "Fr"
  },
  {
    "id": "3410876",
    "company": "Patric métal SA",
    "job": "Constructeur/trice d'appareils industriels CFC",
    "canton": "NE",
    "city": "Les Geneveys-sur-Coffrane",
    "lat": 47.01123809814453,
    "lng": 6.851153373718262,
    "address": "Rue de l'Horizon  29 2206 Les Geneveys-sur-Coffrane",
    "postal": "2206",
    "positions": 1,
    "contact_email": "rh.metal@patric.ch",
    "contact_phone": "0328582858",
    "start_year": 2026,
    "language": "Fr"
  },
  {
    "id": "3294113",
    "company": "TTT Sàrl",
    "job": "Constructeur/trice de routes CFC",
    "canton": "NE",
    "city": "Boudevilliers",
    "lat": 47.026832580566406,
    "lng": 6.885984897613525,
    "address": "Clos Fleuri 1 2043 Boudevilliers",
    "postal": "2043",
    "positions": 1,
    "contact_email": "info@ttt-terrassements.ch",
    "contact_phone": "0325453579",
    "start_year": 2026,
    "language": "Fr"
  },
  {
    "id": "3324772",
    "company": "Marti Arc Jura SA",
    "job": "Constructeur/trice de routes CFC",
    "canton": "NE",
    "city": "Cornaux NE",
    "lat": 47.03324890136719,
    "lng": 7.0303730964660645,
    "address": "A Bugeon - 2087 Cornaux NE",
    "postal": "2087",
    "positions": 2,
    "contact_email": "cornaux@martisa.ch",
    "contact_phone": "0327580000",
    "start_year": 2026,
    "language": "Fr"
  },
  {
    "id": "3300936",
    "company": "Bieri & Grisoni S.A.",
    "job": "Constructeur/trice de routes CFC",
    "canton": "NE",
    "city": "La Chaux-de-Fonds",
    "lat": 47.0877685546875,
    "lng": 6.805770397186279,
    "address": "Boulevard des Éplatures  13 2300 La Chaux-de-Fonds",
    "postal": "2300",
    "positions": 1,
    "contact_email": "bosmani@bgsa.ch",
    "contact_phone": "0329250404",
    "start_year": 2026,
    "language": "Fr"
  },
  {
    "id": "3293318",
    "company": "F. Bernasconi et Cie SA",
    "job": "Constructeur/trice de routes CFC",
    "canton": "NE",
    "city": "Les Geneveys-sur-Coffrane",
    "lat": 47.015869140625,
    "lng": 6.850569725036621,
    "address": "Rue du 1er-Mars  20 2206 Les Geneveys-sur-Coffrane",
    "postal": "2206",
    "positions": 2,
    "contact_email": "rh@bernasconisa.ch",
    "contact_phone": "0328571415",
    "start_year": 2026,
    "language": "Fr"
  },
  {
    "id": "3293349",
    "company": "S. Facchinetti S.A.",
    "job": "Constructeur/trice de routes CFC",
    "canton": "NE",
    "city": "Neuchâtel 2",
    "lat": 47.00664138793945,
    "lng": 6.968175888061523,
    "address": "Route des Gouttes-d'Or 78 2002 Neuchâtel 2",
    "postal": "2002",
    "positions": 2,
    "contact_email": "info@facchinettisa.ch",
    "contact_phone": "0327201212",
    "start_year": 2026,
    "language": "Fr"
  },
  {
    "id": "3294177",
    "company": "Arrigo SA",
    "job": "Constructeur/trice de routes CFC",
    "canton": "NE",
    "city": "Peseux",
    "lat": 46.988685607910156,
    "lng": 6.894219398498535,
    "address": "Rue de Neuchâtel  19 2034 Peseux",
    "postal": "2034",
    "positions": 1,
    "contact_email": "gmettraux@arrigo.ch",
    "contact_phone": "0327321632",
    "start_year": 2026,
    "language": "Fr"
  },
  {
    "id": "3337020",
    "company": "Login formation professionnelle SA",
    "job": "Constructeur/trice de voies ferrées CFC",
    "canton": "NE",
    "city": "Fleurier",
    "lat": 46.53474044799805,
    "lng": 6.583308219909668,
    "address": "Rue de la gare de Triage 5 1020 Renens VD",
    "postal": "2114",
    "positions": 1,
    "contact_email": "",
    "contact_phone": "00848822422",
    "start_year": 2026,
    "language": "Fr"
  },
  {
    "id": "3294126",
    "company": "Login formation professionnelle SA",
    "job": "Constructeur/trice de voies ferrées CFC",
    "canton": "NE",
    "city": "Neuchâtel",
    "lat": 46.53474044799805,
    "lng": 6.583308219909668,
    "address": "Rue de la gare de Triage 5 1020 Renens VD",
    "postal": "2000",
    "positions": 1,
    "contact_email": "",
    "contact_phone": "00848822422",
    "start_year": 2026,
    "language": "Fr"
  },
  {
    "id": "3250057",
    "company": "Paris & Comtesse SA",
    "job": "Constructeur/trice métallique (Constructrice métallique) CFC",
    "canton": "NE",
    "city": "Boudry",
    "lat": 46.9572868347168,
    "lng": 6.840487957000732,
    "address": "Chemin de la Baconnière 55 2017 Boudry",
    "postal": "2017",
    "positions": 1,
    "contact_email": "info@pc-sa.ch",
    "contact_phone": "0328461430",
    "start_year": 2026,
    "language": "Fr"
  },
  {
    "id": "3250058",
    "company": "F. Sacchetti Sàrl",
    "job": "Constructeur/trice métallique (Constructrice métallique) CFC",
    "canton": "NE",
    "city": "Cornaux NE",
    "lat": 47.03438949584961,
    "lng": 7.01664924621582,
    "address": "Prés-Bersot   21 2087 Cornaux NE",
    "postal": "2087",
    "positions": 1,
    "contact_email": "info@sacchettimetal.ch",
    "contact_phone": "0327573825",
    "start_year": 2026,
    "language": "Fr"
  },
  {
    "id": "3250059",
    "company": "Constructions métalliques Perrenoud Sàrl",
    "job": "Constructeur/trice métallique (Constructrice métallique) CFC",
    "canton": "NE",
    "city": "Cressier NE",
    "lat": 47.051063537597656,
    "lng": 7.039311408996582,
    "address": "Chemins des Devins  4 2088 Cressier NE",
    "postal": "2088",
    "positions": 1,
    "contact_email": "dp@cmpmetal.ch",
    "contact_phone": "0327571230",
    "start_year": 2026,
    "language": "Fr"
  },
  {
    "id": "3250040",
    "company": "SDB Constructions Métalliques SA",
    "job": "Constructeur/trice métallique (Constructrice métallique) CFC",
    "canton": "NE",
    "city": "La Chaux-de-Fonds",
    "lat": 47.09336471557617,
    "lng": 6.822193622589111,
    "address": "Bd de la Liberté  2 2300 La Chaux-de-Fonds",
    "postal": "2300",
    "positions": 1,
    "contact_email": "s.hofstetter@sdbsa.com",
    "contact_phone": "0329692643",
    "start_year": 2026,
    "language": "Fr"
  },
  {
    "id": "3249852",
    "company": "Technique Métal Sàrl",
    "job": "Constructeur/trice métallique (Constructrice métallique) CFC",
    "canton": "NE",
    "city": "La Chaux-de-Fonds",
    "lat": 47.097232818603516,
    "lng": 6.817065238952637,
    "address": "Rue de la Paix   128 2300 La Chaux-de-Fonds",
    "postal": "2300",
    "positions": 1,
    "contact_email": "info@technique-metal.ch",
    "contact_phone": "0329680447",
    "start_year": 2026,
    "language": "Fr"
  },
  {
    "id": "3250060",
    "company": "Concept Métal Sàrl",
    "job": "Constructeur/trice métallique (Constructrice métallique) CFC",
    "canton": "NE",
    "city": "Le Brouillet",
    "lat": 46.95973205566406,
    "lng": 6.545699119567871,
    "address": "Bémont  4 2406 Le Brouillet",
    "postal": "2406",
    "positions": 1,
    "contact_email": "s.baggenstoss@bluewin.ch",
    "contact_phone": "0329351565",
    "start_year": 2026,
    "language": "Fr"
  },
  {
    "id": "3249396",
    "company": "Serrurerie - Constr. Métalliques J-D NUSSBAUM Sàrl",
    "job": "Constructeur/trice métallique (Constructrice métallique) CFC",
    "canton": "NE",
    "city": "St-Aubin-Sauges",
    "lat": 46.89395523071289,
    "lng": 6.777666091918945,
    "address": "Rafour  1 2024 St-Aubin-Sauges",
    "postal": "2024",
    "positions": 1,
    "contact_email": "serrurerie-jd.nussbaum@bluewin.ch",
    "contact_phone": "0328352863",
    "start_year": 2026,
    "language": "Fr"
  },
  {
    "id": "3249850",
    "company": "Leutwiler SA Construction Métallique",
    "job": "Constructeur/trice métallique (Constructrice métallique) CFC",
    "canton": "NE",
    "city": "St-Blaise",
    "lat": 47.013511657714844,
    "lng": 6.98293924331665,
    "address": "Rue de Neuchâtel  14 2072 St-Blaise",
    "postal": "2072",
    "positions": 1,
    "contact_email": "contact@leutwilersa.ch",
    "contact_phone": "0327572023",
    "start_year": 2026,
    "language": "Fr"
  },
  {
    "id": "3250043",
    "company": "Serrurerie, Construction métallique Margueron",
    "job": "Constructeur/trice métallique (Constructrice métallique) CFC",
    "canton": "NE",
    "city": "Valangin",
    "lat": 47.18454360961914,
    "lng": 8.07820987701416,
    "address": "Construction métallique Margueron Le Saut   6",
    "postal": "2042",
    "positions": 1,
    "contact_email": "serrurerie.margueron@gmail.com",
    "contact_phone": "0328572580",
    "start_year": 2026,
    "language": "Fr"
  },
  {
    "id": "3238322",
    "company": "Gottburg SA",
    "job": "Couvreur/euse CFC",
    "canton": "NE",
    "city": "Boudry",
    "lat": 46.96010208129883,
    "lng": 6.837349891662598,
    "address": "Route de la Gare  68 2017 Boudry",
    "postal": "2017",
    "positions": 1,
    "contact_email": "info@gottburg.ch",
    "contact_phone": "0328461630",
    "start_year": 2026,
    "language": "Fr"
  },
  {
    "id": "3248650",
    "company": "Loertscher-toiture Sàrl",
    "job": "Couvreur/euse CFC",
    "canton": "NE",
    "city": "Gorgier",
    "lat": 46.90387725830078,
    "lng": 6.7791361808776855,
    "address": "Les Prises   17 2023 Gorgier",
    "postal": "2023",
    "positions": 1,
    "contact_email": "info@loertscher-toiture.ch",
    "contact_phone": "0328352847",
    "start_year": 2026,
    "language": "Fr"
  },
  {
    "id": "3250717",
    "company": "Hôtel Restaurant du Cygne",
    "job": "Cuisinier/ière CFC",
    "canton": "NE",
    "city": "Bevaix",
    "lat": 46.93043518066406,
    "lng": 6.815539836883545,
    "address": "Rue du Temple 8 2022 Bevaix",
    "postal": "2022",
    "positions": 1,
    "contact_email": "info@cygne-bevaix.ch",
    "contact_phone": "0328461365",
    "start_year": 2026,
    "language": "Fr"
  },
  {
    "id": "3206902",
    "company": "EMS Carpe Diem SA",
    "job": "Cuisinier/ière CFC",
    "canton": "NE",
    "city": "Boudry",
    "lat": 46.95098114013672,
    "lng": 6.830440521240234,
    "address": "Route des Addoz 4A 2017 Boudry",
    "postal": "2017",
    "positions": 1,
    "contact_email": "contact@ems-carpediem.ch",
    "contact_phone": "0328430450",
    "start_year": 2026,
    "language": "Fr"
  },
  {
    "id": "3242099",
    "company": "Goût & Région SA",
    "job": "Cuisinier/ière CFC",
    "canton": "NE",
    "city": "Couvet",
    "lat": 46.92583084106445,
    "lng": 6.632537841796875,
    "address": "Grand-Rue 27 2108 Couvet",
    "postal": "2108",
    "positions": 1,
    "contact_email": "comptabilite@gout-region.ch",
    "contact_phone": "0328649050",
    "start_year": 2026,
    "language": "Fr"
  },
  {
    "id": "3343319",
    "company": "Eldora SA",
    "job": "Cuisinier/ière CFC",
    "canton": "NE",
    "city": "La Chaux-de-Fonds",
    "lat": 47.10860824584961,
    "lng": 6.835360050201416,
    "address": "Rue des Terreaux 48-50 2300 La Chaux-de-Fonds",
    "postal": "2300",
    "positions": 1,
    "contact_email": "apprentissage@eldora.ch",
    "contact_phone": "0218045533",
    "start_year": 2026,
    "language": "Fr"
  },
  {
    "id": "3174236",
    "company": "EMS La Sombaille",
    "job": "Cuisinier/ière CFC",
    "canton": "NE",
    "city": "La Chaux-de-Fonds",
    "lat": 47.11207580566406,
    "lng": 6.825550079345703,
    "address": "Rue des XXII-Cantons  2 2301 La Chaux-de-Fonds",
    "postal": "2301",
    "positions": 2,
    "contact_email": "Home.Sombaille@ne.ch",
    "contact_phone": "0329670111",
    "start_year": 2026,
    "language": "Fr"
  },
  {
    "id": "3421508",
    "company": "EMS l'Arbre du Temps",
    "job": "Cuisinier/ière CFC",
    "canton": "NE",
    "city": "La Chaux-de-Fonds",
    "lat": 47.113277435302734,
    "lng": 6.83420467376709,
    "address": "Chemin des Kikajons 41 2300 La Chaux-de-Fonds",
    "postal": "2300",
    "positions": 1,
    "contact_email": "EMS.larbredutemps@ne.ch",
    "contact_phone": "0329677256",
    "start_year": 2026,
    "language": "Fr"
  },
  {
    "id": "3249518",
    "company": "Fondation La Résidence",
    "job": "Cuisinier/ière CFC",
    "canton": "NE",
    "city": "Le Locle",
    "lat": 47.05492401123047,
    "lng": 6.739338397979736,
    "address": "Rue des Billodes  40 2400 Le Locle",
    "postal": "2400",
    "positions": 1,
    "contact_email": "fondation.residence@ne.ch",
    "contact_phone": "0329332111",
    "start_year": 2026,
    "language": "Fr"
  },
  {
    "id": "3238776",
    "company": "Fondation Les Perce-Neige",
    "job": "Cuisinier/ière CFC",
    "canton": "NE",
    "city": "Les Hauts-Geneveys",
    "lat": 47.04218673706055,
    "lng": 6.868821620941162,
    "address": "Chemin Mon Loisir 23e 2208 Les Hauts-Geneveys",
    "postal": "2208",
    "positions": 2,
    "contact_email": "",
    "contact_phone": "0328866700",
    "start_year": 2026,
    "language": "Fr"
  },
  {
    "id": "3238572",
    "company": "Centre Neuchâtelois de Psychiatrie - Préfargier",
    "job": "Cuisinier/ière CFC",
    "canton": "NE",
    "city": "Marin-Epagnier",
    "lat": 47.0058479309082,
    "lng": 7.007386684417725,
    "address": "Préfargier / Perreux - 2074 Marin-Epagnier",
    "postal": "2074",
    "positions": 1,
    "contact_email": "recrutement@cnp.ch",
    "contact_phone": "0327551500",
    "start_year": 2026,
    "language": "Fr"
  },
  {
    "id": "3246157",
    "company": "RHNe- Réseau hospitalier neuchâtelois Pourtales",
    "job": "Cuisinier/ière CFC",
    "canton": "NE",
    "city": "Neuchâtel",
    "lat": 46.99623107910156,
    "lng": 6.9428534507751465,
    "address": "Rue de la Maladière 45 2000 Neuchâtel",
    "postal": "2000",
    "positions": 1,
    "contact_email": "formation@rhne.ch",
    "contact_phone": "0795594329",
    "start_year": 2026,
    "language": "Fr"
  },
  {
    "id": "3249275",
    "company": "Hôtel Beau-Rivage Neuchâtel S.A.",
    "job": "Cuisinier/ière CFC",
    "canton": "NE",
    "city": "Neuchâtel 1",
    "lat": 46.98904037475586,
    "lng": 6.928812503814697,
    "address": "Esplanade du Mont-Blanc 1 2001 Neuchâtel 1",
    "postal": "2001",
    "positions": 1,
    "contact_email": "rh@beau-rivage-hotel.ch",
    "contact_phone": "0327231515",
    "start_year": 2026,
    "language": "Fr"
  },
  {
    "id": "3249834",
    "company": "SMNH SA - Hôpital de la Providence",
    "job": "Cuisinier/ière CFC",
    "canton": "NE",
    "city": "Neuchâtel 1",
    "lat": 46.9951171875,
    "lng": 6.938850402832031,
    "address": "Faubourg de l'Hôpital 81 2001 Neuchâtel 1",
    "postal": "2001",
    "positions": 1,
    "contact_email": "info@providence.ch",
    "contact_phone": "",
    "start_year": 2026,
    "language": "Fr"
  },
  {
    "id": "3251263",
    "company": "La Maison du Village",
    "job": "Cuisinier/ière CFC",
    "canton": "NE",
    "city": "St-Aubin-Sauges",
    "lat": 46.887168884277344,
    "lng": 6.7633795738220215,
    "address": "Rue de la Fontanette   41 2024 St-Aubin-Sauges",
    "postal": "2024",
    "positions": 1,
    "contact_email": "info@maisonduvillage.ch",
    "contact_phone": "0328353272",
    "start_year": 2026,
    "language": "Fr"
  },
  {
    "id": "3249419",
    "company": "La Perlaz",
    "job": "Cuisinier/ière CFC",
    "canton": "NE",
    "city": "St-Aubin-Sauges",
    "lat": 46.892818450927734,
    "lng": 6.769690036773682,
    "address": "Rue de l'Hôpital 12 2024 St-Aubin-Sauges",
    "postal": "2024",
    "positions": 1,
    "contact_email": "laperlaz@ne.ch",
    "contact_phone": "0328361900",
    "start_year": 2026,
    "language": "Fr"
  },
  {
    "id": "3251279",
    "company": "Le 19ième - Restaurant du golf de Neuchâtel",
    "job": "Cuisinier/ière CFC",
    "canton": "NE",
    "city": "St-Blaise",
    "lat": 47.032310485839844,
    "lng": 6.992363452911377,
    "address": "Voëns 13 2072 St-Blaise",
    "postal": "2072",
    "positions": 1,
    "contact_email": "info@le19ieme.ch",
    "contact_phone": "0327535005",
    "start_year": 2026,
    "language": "Fr"
  },
  {
    "id": "3249841",
    "company": "Résidence Le Castel",
    "job": "Cuisinier/ière CFC",
    "canton": "NE",
    "city": "St-Blaise",
    "lat": 47.01361083984375,
    "lng": 6.989537715911865,
    "address": "Rue du Vigner  13 2072 St-Blaise",
    "postal": "2072",
    "positions": 1,
    "contact_email": "info@le-castel.ch",
    "contact_phone": "0325545000",
    "start_year": 2026,
    "language": "Fr"
  },
  {
    "id": "3246285",
    "company": "Etat de Neuchâtel",
    "job": "Dessinateur/trice (Architecture) CFC",
    "canton": "NE",
    "city": "Neuchâtel",
    "lat": 46.983360290527344,
    "lng": 6.904846668243408,
    "address": "Rue de Tivoli 28 2000 Neuchâtel",
    "postal": "2000",
    "positions": 1,
    "contact_email": "srhe.formation@ne.ch",
    "contact_phone": "0328896450",
    "start_year": 2026,
    "language": "Fr"
  },
  {
    "id": "3249520",
    "company": "Edilplan S.A.",
    "job": "Dessinateur/trice (Architecture) CFC",
    "canton": "NE",
    "city": "Peseux",
    "lat": 46.988739013671875,
    "lng": 6.8881683349609375,
    "address": "Rte de Neuchâtel   8 2034 Peseux",
    "postal": "2034",
    "positions": 1,
    "contact_email": "apprentissage@edilplan.ch",
    "contact_phone": "0327310088",
    "start_year": 2026,
    "language": "Fr"
  },
  {
    "id": "3249280",
    "company": "RWB Neuchâtel SA",
    "job": "Dessinateur/trice (Génie civil) CFC",
    "canton": "NE",
    "city": "Neuchâtel",
    "lat": 46.99700164794922,
    "lng": 6.938887119293213,
    "address": "Crêt-Taconnet  12A 2000 Neuchâtel",
    "postal": "2000",
    "positions": 1,
    "contact_email": "neuchatel@rwb.ch",
    "contact_phone": "0582203880",
    "start_year": 2026,
    "language": "Fr"
  },
  {
    "id": "3286366",
    "company": "Jean Singer & Cie SA",
    "job": "Dessinateur/trice en construction microtechnique CFC",
    "canton": "NE",
    "city": "Boudry",
    "lat": 46.960594177246094,
    "lng": 6.837695121765137,
    "address": "Rte de la Gare 70 2017 Boudry",
    "postal": "2017",
    "positions": 1,
    "contact_email": "rh@singersa.ch",
    "contact_phone": "0329111313",
    "start_year": 2026,
    "language": "Fr"
  },
  {
    "id": "3301478",
    "company": "CAAJ",
    "job": "Dessinateur/trice en construction microtechnique CFC",
    "canton": "NE",
    "city": "La Chaux-de-Fonds",
    "lat": 47.0859260559082,
    "lng": 6.801539897918701,
    "address": "Boulevard des Eplatures 39 2300 La Chaux-de-Fonds",
    "postal": "2300",
    "positions": 1,
    "contact_email": "info@caaj.ch",
    "contact_phone": "0329263050",
    "start_year": 2026,
    "language": "Fr"
  },
  {
    "id": "3410958",
    "company": "Ceramaret SA",
    "job": "Dessinateur/trice-constructeur/trice industriel/le CFC",
    "canton": "NE",
    "city": "Bôle",
    "lat": 46.96512985229492,
    "lng": 6.84513521194458,
    "address": "Rue des Croix  43 2014 Bôle",
    "postal": "2014",
    "positions": 1,
    "contact_email": "rh@ceramaret.com",
    "contact_phone": "0328438383",
    "start_year": 2026,
    "language": "Fr"
  },
  {
    "id": "3410973",
    "company": "CAAJ",
    "job": "Dessinateur/trice-constructeur/trice industriel/le CFC",
    "canton": "NE",
    "city": "La Chaux-de-Fonds",
    "lat": 47.0859260559082,
    "lng": 6.801539897918701,
    "address": "Boulevard des Eplatures 39 2300 La Chaux-de-Fonds",
    "postal": "2300",
    "positions": 1,
    "contact_email": "info@caaj.ch",
    "contact_phone": "0329263050",
    "start_year": 2026,
    "language": "Fr"
  },
  {
    "id": "3411007",
    "company": "DIXI Services SA",
    "job": "Dessinateur/trice-constructeur/trice industriel/le CFC",
    "canton": "NE",
    "city": "Le Locle",
    "lat": 47.053218841552734,
    "lng": 6.739632606506348,
    "address": "Avenue du Technicum   42 2400 Le Locle",
    "postal": "2400",
    "positions": 1,
    "contact_email": "rania.bousmina@dixi.ch",
    "contact_phone": "0329335185",
    "start_year": 2026,
    "language": "Fr"
  },
  {
    "id": "3336450",
    "company": "Constructions métalliques Perrenoud Sàrl",
    "job": "Dessinateur/trice-constructeur/trice sur métal CFC",
    "canton": "NE",
    "city": "Cressier NE",
    "lat": 47.051063537597656,
    "lng": 7.039311408996582,
    "address": "Chemins des Devins  4 2088 Cressier NE",
    "postal": "2088",
    "positions": 1,
    "contact_email": "dp@cmpmetal.ch",
    "contact_phone": "0327571230",
    "start_year": 2026,
    "language": "Fr"
  },
  {
    "id": "3294357",
    "company": "BCS SA",
    "job": "Dessinateur/trice-constructeur/trice sur métal CFC",
    "canton": "NE",
    "city": "Neuchâtel",
    "lat": 46.989051818847656,
    "lng": 6.904716491699219,
    "address": "Rue des Draizes  3 2000 Neuchâtel",
    "postal": "2000",
    "positions": 1,
    "contact_email": "office@bcs-facades.ch",
    "contact_phone": "0327329800",
    "start_year": 2026,
    "language": "Fr"
  },
  {
    "id": "3293985",
    "company": "EDFM Sàrl",
    "job": "Dessinateur/trice-constructeur/trice sur métal CFC",
    "canton": "NE",
    "city": "Neuchâtel",
    "lat": 46.98221969604492,
    "lng": 6.903495788574219,
    "address": "Guillaume-Farel   20 2000 Neuchâtel",
    "postal": "2000",
    "positions": 1,
    "contact_email": "didier.christen@edfm.ch",
    "contact_phone": "0327257373",
    "start_year": 2026,
    "language": "Fr"
  },
  {
    "id": "3293885",
    "company": "R&D Metal Sàrl",
    "job": "Dessinateur/trice-constructeur/trice sur métal CFC",
    "canton": "NE",
    "city": "Savagnier",
    "lat": 47.049232482910156,
    "lng": 6.957456111907959,
    "address": "Corbes  2 2065 Savagnier",
    "postal": "2065",
    "positions": 1,
    "contact_email": "joel.rollier@rdmetal.ch",
    "contact_phone": "0328520681",
    "start_year": 2026,
    "language": "Fr"
  },
  {
    "id": "3248674",
    "company": "Immo'Bois Sàrl",
    "job": "Ébéniste CFC, Menuisier/ière (Ébénisterie) CFC",
    "canton": "NE",
    "city": "La Chaux-de-Fonds",
    "lat": 47.10173797607422,
    "lng": 6.83083438873291,
    "address": "Rue de l'Arsenal 11 2300 La Chaux-de-Fonds",
    "postal": "2300",
    "positions": 1,
    "contact_email": "ferdi_h78@bluewin.ch",
    "contact_phone": "0787179126",
    "start_year": 2026,
    "language": "Fr"
  },
  {
    "id": "3286336",
    "company": "Menuiserie Pascal Isler Sàrl",
    "job": "Ébéniste CFC, Menuisier/ière (Menuiserie) CFC",
    "canton": "NE",
    "city": "Couvet",
    "lat": 46.9200553894043,
    "lng": 6.632878303527832,
    "address": "Saint-Gervais 39 2108 Couvet",
    "postal": "2108",
    "positions": 1,
    "contact_email": "contact@menuiserie-isler.ch",
    "contact_phone": "0793288073",
    "start_year": 2026,
    "language": "Fr"
  },
  {
    "id": "3293947",
    "company": "Gaille Construction SA",
    "job": "Ébéniste CFC, Menuisier/ière (Menuiserie) CFC",
    "canton": "NE",
    "city": "Fresens",
    "lat": 46.88809585571289,
    "lng": 6.749453067779541,
    "address": "Route de Saint-Aubin  3 2027 Fresens",
    "postal": "2027",
    "positions": 2,
    "contact_email": "info@gaille.ch",
    "contact_phone": "0328352828",
    "start_year": 2026,
    "language": "Fr"
  },
  {
    "id": "3248675",
    "company": "Immo'Bois Sàrl",
    "job": "Ébéniste CFC, Menuisier/ière (Menuiserie) CFC",
    "canton": "NE",
    "city": "La Chaux-de-Fonds",
    "lat": 47.10173797607422,
    "lng": 6.83083438873291,
    "address": "Rue de l'Arsenal 11 2300 La Chaux-de-Fonds",
    "postal": "2300",
    "positions": 1,
    "contact_email": "ferdi_h78@bluewin.ch",
    "contact_phone": "0787179126",
    "start_year": 2026,
    "language": "Fr"
  },
  {
    "id": "3294517",
    "company": "Matile Menuiserie Sàrl",
    "job": "Ébéniste CFC, Menuisier/ière (Menuiserie) CFC",
    "canton": "NE",
    "city": "La Sagne NE",
    "lat": 47.04785919189453,
    "lng": 6.812500953674316,
    "address": "Miéville 134 2314 La Sagne NE",
    "postal": "2314",
    "positions": 1,
    "contact_email": "tmatile@matile-menuiserie.ch",
    "contact_phone": "0329315262",
    "start_year": 2026,
    "language": "Fr"
  },
  {
    "id": "3294188",
    "company": "Menuiserie Cuenot Sàrl",
    "job": "Ébéniste CFC, Menuisier/ière (Menuiserie) CFC",
    "canton": "NE",
    "city": "Le Cerneux-Péquignot",
    "lat": 47.015682220458984,
    "lng": 6.663595676422119,
    "address": "Village  19a 2414 Le Cerneux-Péquignot",
    "postal": "2414",
    "positions": 1,
    "contact_email": "mcuenot@bluewin.ch",
    "contact_phone": "0794367912",
    "start_year": 2026,
    "language": "Fr"
  },
  {
    "id": "3293867",
    "company": "Bastien Gaberell Sàrl",
    "job": "Ébéniste CFC, Menuisier/ière (Menuiserie) CFC",
    "canton": "NE",
    "city": "Les Ponts-de-Martel",
    "lat": 46.998023986816406,
    "lng": 6.735965251922607,
    "address": "En Bas-Les-Barres  20b 2316 Les Ponts-de-Martel",
    "postal": "2316",
    "positions": 1,
    "contact_email": "contact@menuiseriegaberell.ch",
    "contact_phone": "0329203151",
    "start_year": 2026,
    "language": "Fr"
  },
  {
    "id": "3293485",
    "company": "Société Technique S.A.",
    "job": "Ébéniste CFC, Menuisier/ière (Menuiserie) CFC",
    "canton": "NE",
    "city": "Marin-Epagnier",
    "lat": 47.00910186767578,
    "lng": 7.0077619552612305,
    "address": "Rue de la Gare  13 2074 Marin-Epagnier",
    "postal": "2074",
    "positions": 3,
    "contact_email": "contact@societe-technique.ch",
    "contact_phone": "0327226262",
    "start_year": 2026,
    "language": "Fr"
  },
  {
    "id": "3294481",
    "company": "Charly Kocher Sàrl",
    "job": "Ébéniste CFC, Menuisier/ière (Menuiserie) CFC",
    "canton": "NE",
    "city": "Mont-de-Buttes",
    "lat": 46.87781524658203,
    "lng": 6.506558418273926,
    "address": "Mont-de-Buttes 3 2116 Mont-de-Buttes",
    "postal": "2116",
    "positions": 1,
    "contact_email": "",
    "contact_phone": "0792323102",
    "start_year": 2026,
    "language": "Fr"
  },
  {
    "id": "3294461",
    "company": "Menuiserie Martial Ritz S.A.",
    "job": "Ébéniste CFC, Menuisier/ière (Menuiserie) CFC",
    "canton": "NE",
    "city": "Neuchâtel",
    "lat": 46.98979949951172,
    "lng": 6.908683776855469,
    "address": "Chemin de Casse-Bras  8 2000 Neuchâtel",
    "postal": "2000",
    "positions": 1,
    "contact_email": "ritzsa@ritzsa.ch",
    "contact_phone": "0327305530",
    "start_year": 2026,
    "language": "Fr"
  },
  {
    "id": "3293456",
    "company": "Lienher S.A.",
    "job": "Ébéniste CFC, Menuisier/ière (Menuiserie) CFC",
    "canton": "NE",
    "city": "Savagnier",
    "lat": 47.05227279663086,
    "lng": 6.953189849853516,
    "address": "Corbes  27 2065 Savagnier",
    "postal": "2065",
    "positions": 1,
    "contact_email": "info@lienher.ch",
    "contact_phone": "0328532324",
    "start_year": 2026,
    "language": "Fr"
  },
  {
    "id": "3238236",
    "company": "Fasel Echafaudages SA",
    "job": "Échafaudeur/euse CFC",
    "canton": "NE",
    "city": "Boudry",
    "lat": 46.96010208129883,
    "lng": 6.837349891662598,
    "address": "Route de la Gare  68 2017 Boudry",
    "postal": "2017",
    "positions": 2,
    "contact_email": "neuchatel@faselsa.ch",
    "contact_phone": "0328414131",
    "start_year": 2026,
    "language": "Fr"
  },
  {
    "id": "3792680",
    "company": "Meillard, Cressier, Glaus S.A.",
    "job": "Électricien/ne de montage CFC",
    "canton": "NE",
    "city": "Cortaillod",
    "lat": 47.001983642578125,
    "lng": 8.526065826416016,
    "address": "Cressier Glaus S.A.",
    "postal": "2016",
    "positions": 1,
    "contact_email": "info@meillard.ch",
    "contact_phone": "0328421152",
    "start_year": 2026,
    "language": "Fr"
  },
  {
    "id": "3780872",
    "company": "Aubry Telecom SA",
    "job": "Électricien/ne de montage CFC",
    "canton": "NE",
    "city": "La Chaux-de-Fonds",
    "lat": 47.100608825683594,
    "lng": 6.828203201293945,
    "address": "Rue Jaquet-Droz  38 2300 La Chaux-de-Fonds",
    "postal": "2300",
    "positions": 1,
    "contact_email": "info@aubrytel.ch",
    "contact_phone": "0329131313",
    "start_year": 2026,
    "language": "Fr"
  },
  {
    "id": "3421600",
    "company": "Electricité des Hêtres S.A.",
    "job": "Électricien/ne de montage CFC",
    "canton": "NE",
    "city": "La Chaux-de-Fonds",
    "lat": 47.111549377441406,
    "lng": 6.839574337005615,
    "address": "Rue de la Pâquerette  21 2300 La Chaux-de-Fonds",
    "postal": "2300",
    "positions": 2,
    "contact_email": "adm@ehetres.ch",
    "contact_phone": "0329683755",
    "start_year": 2026,
    "language": "Fr"
  },
  {
    "id": "3792672",
    "company": "Krieg Electricité Sàrl",
    "job": "Électricien/ne de montage CFC",
    "canton": "NE",
    "city": "Lignières",
    "lat": 47.09120559692383,
    "lng": 7.061110496520996,
    "address": "Le Ruz du Plane 2 2523 Lignières",
    "postal": "2523",
    "positions": 1,
    "contact_email": "info@krieg-electricite.ch",
    "contact_phone": "0327511966",
    "start_year": 2026,
    "language": "Fr"
  },
  {
    "id": "3792640",
    "company": "Electropro S.A.",
    "job": "Électricien/ne de montage CFC",
    "canton": "NE",
    "city": "Neuchâtel",
    "lat": 47.00337219238281,
    "lng": 6.961145877838135,
    "address": "Route des Falaises 110 2000 Neuchâtel",
    "postal": "2000",
    "positions": 2,
    "contact_email": "info@electropro.ch",
    "contact_phone": "0327291010",
    "start_year": 2026,
    "language": "Fr"
  },
  {
    "id": "3792648",
    "company": "ETAVIS Romandie SA",
    "job": "Électricien/ne de montage CFC",
    "canton": "NE",
    "city": "Neuchâtel",
    "lat": 46.98923873901367,
    "lng": 6.904027938842773,
    "address": "Rue des Draizes 5 2000 Neuchâtel",
    "postal": "2000",
    "positions": 1,
    "contact_email": "neuchatel@etavis.ch",
    "contact_phone": "0327271040",
    "start_year": 2026,
    "language": "Fr"
  },
  {
    "id": "3792660",
    "company": "Guth Électricité Sàrl",
    "job": "Électricien/ne de montage CFC",
    "canton": "NE",
    "city": "Peseux",
    "lat": 46.988014221191406,
    "lng": 6.8959174156188965,
    "address": "Châtelard 9 2034 Peseux",
    "postal": "2034",
    "positions": 1,
    "contact_email": "info@guth.ch",
    "contact_phone": "0327313090",
    "start_year": 2026,
    "language": "Fr"
  },
  {
    "id": "3242284",
    "company": "Groupe E Arc SA",
    "job": "Électricien/ne de réseau (Énergie) CFC",
    "canton": "NE",
    "city": "Boudry",
    "lat": 46.959938049316406,
    "lng": 6.83651065826416,
    "address": "Route de la Gare 64 2017 Boudry",
    "postal": "2017",
    "positions": 1,
    "contact_email": "talents-academy@groupe-e.ch",
    "contact_phone": "0263525060",
    "start_year": 2026,
    "language": "Fr"
  },
  {
    "id": "3249594",
    "company": "Société Electrique du Val-de-Travers SA",
    "job": "Électricien/ne de réseau (Énergie) CFC",
    "canton": "NE",
    "city": "Couvet",
    "lat": 46.924278259277344,
    "lng": 6.635078430175781,
    "address": "Preyel   9 2108 Couvet",
    "postal": "2108",
    "positions": 1,
    "contact_email": "info@sevt.ch",
    "contact_phone": "0328631224",
    "start_year": 2026,
    "language": "Fr"
  },
  {
    "id": "3166948",
    "company": "Viteos SA",
    "job": "Électricien/ne de réseau (Énergie) CFC",
    "canton": "NE",
    "city": "Neuchâtel",
    "lat": 46.98677062988281,
    "lng": 6.915736675262451,
    "address": "Quai Max-Petitpierre 4 2000 Neuchâtel",
    "postal": "2000",
    "positions": 2,
    "contact_email": "ressources.humaines@viteos.ch",
    "contact_phone": "0800800012",
    "start_year": 2026,
    "language": "Fr"
  },
  {
    "id": "3174230",
    "company": "Login formation professionnelle SA",
    "job": "Électricien/ne de réseau (Lignes de contact) CFC",
    "canton": "NE",
    "city": "Neuchâtel",
    "lat": 46.53474044799805,
    "lng": 6.583308219909668,
    "address": "Rue de la gare de Triage 5 1020 Renens VD",
    "postal": "2000",
    "positions": 1,
    "contact_email": "",
    "contact_phone": "00848822422",
    "start_year": 2026,
    "language": "Fr"
  },
  {
    "id": "3246406",
    "company": "Cicor Technologies Ltd",
    "job": "Electroplaste CFC",
    "canton": "NE",
    "city": "Boudry",
    "lat": 46.94552230834961,
    "lng": 6.828895568847656,
    "address": "Route de l'Europe  8 2017 Boudry",
    "postal": "2017",
    "positions": 1,
    "contact_email": "tsilla.gaille@cicor.com",
    "contact_phone": "0328430576",
    "start_year": 2026,
    "language": "Fr"
  },
  {
    "id": "3294198",
    "company": "ETA SA, Manufacture Horlogère Suisse",
    "job": "Electroplaste CFC",
    "canton": "NE",
    "city": "Fontainemelon",
    "lat": 47.19452667236328,
    "lng": 7.396556377410889,
    "address": "Schild-Rust-Strasse 17 2540 Granges SO",
    "postal": "2052",
    "positions": 1,
    "contact_email": "future@eta.ch",
    "contact_phone": "0326557111",
    "start_year": 2026,
    "language": "Fr"
  },
  {
    "id": "3294207",
    "company": "C.M.T. Rickenbach S.A.",
    "job": "Electroplaste CFC",
    "canton": "NE",
    "city": "La Chaux-de-Fonds",
    "lat": 47.09468078613281,
    "lng": 6.834763526916504,
    "address": "Boulevard de la Liberté  59-61 2300 La Chaux-de-Fonds",
    "postal": "2300",
    "positions": 1,
    "contact_email": "a.andre@cmtrickenbach.com",
    "contact_phone": "0329100303",
    "start_year": 2026,
    "language": "Fr"
  },
  {
    "id": "3248207",
    "company": "Procadrans",
    "job": "Electroplaste CFC",
    "canton": "NE",
    "city": "La Chaux-de-Fonds",
    "lat": 47.191349029541016,
    "lng": 7.198330402374268,
    "address": "Rte de l'Orée-du-Bois 7 2301 La Chaux-de-Fonds",
    "postal": "2301",
    "positions": 1,
    "contact_email": "damien.gisler@richemont.com",
    "contact_phone": "0326817100",
    "start_year": 2026,
    "language": "Fr"
  },
  {
    "id": "3286309",
    "company": "Someco SA",
    "job": "Electroplaste CFC",
    "canton": "NE",
    "city": "La Chaux-de-Fonds",
    "lat": 47.097137451171875,
    "lng": 6.826562881469727,
    "address": "Rue des Crêtets  32 2300 La Chaux-de-Fonds",
    "postal": "2300",
    "positions": 1,
    "contact_email": "rh@someco.ch",
    "contact_phone": "0327322424",
    "start_year": 2026,
    "language": "Fr"
  },
  {
    "id": "3293952",
    "company": "Universo S.A.",
    "job": "Electroplaste CFC",
    "canton": "NE",
    "city": "La Chaux-de-Fonds",
    "lat": 47.084228515625,
    "lng": 6.803807258605957,
    "address": "Rue Louis-Joseph Chevrolet 43 2300 La Chaux-de-Fonds",
    "postal": "2300",
    "positions": 1,
    "contact_email": "recrutement@universo.ch",
    "contact_phone": "0329119191",
    "start_year": 2026,
    "language": "Fr"
  },
  {
    "id": "3294523",
    "company": "Métalem S.A.",
    "job": "Electroplaste CFC",
    "canton": "NE",
    "city": "Le Locle",
    "lat": 47.06105422973633,
    "lng": 6.756895065307617,
    "address": "Rue de la Concorde 29 2400 Le Locle",
    "postal": "2400",
    "positions": 1,
    "contact_email": "metalem.apprentissage@hotmail.com",
    "contact_phone": "0329339393",
    "start_year": 2026,
    "language": "Fr"
  },
  {
    "id": "3169411",
    "company": "Ville de La Chaux-de-Fonds",
    "job": "Employé/e de commerce (Administration publique ) CFC",
    "canton": "NE",
    "city": "La Chaux-de-Fonds",
    "lat": 47.10295867919922,
    "lng": 6.828466415405273,
    "address": "Rue de la Serre 23 2300 La Chaux-de-Fonds",
    "postal": "2300",
    "positions": 2,
    "contact_email": "SRH.VCH@ne.ch",
    "contact_phone": "0329676281",
    "start_year": 2026,
    "language": "Fr"
  },
  {
    "id": "3197908",
    "company": "Etat de Neuchâtel",
    "job": "Employé/e de commerce (Administration publique ) CFC",
    "canton": "NE",
    "city": "Neuchâtel",
    "lat": 46.983360290527344,
    "lng": 6.904846668243408,
    "address": "Rue de Tivoli 28 2000 Neuchâtel",
    "postal": "2000",
    "positions": 20,
    "contact_email": "",
    "contact_phone": "",
    "start_year": 2026,
    "language": "Fr"
  },
  {
    "id": "3205925",
    "company": "Université de Neuchâtel - Service des R.H.",
    "job": "Employé/e de commerce (Administration publique ) CFC",
    "canton": "NE",
    "city": "Neuchâtel",
    "lat": 46.99449157714844,
    "lng": 6.938920021057129,
    "address": "Faubourg de l'Hôpital 106 2000 Neuchâtel",
    "postal": "2000",
    "positions": 1,
    "contact_email": "aurelie.jeanneret@unine.ch",
    "contact_phone": "0327181029",
    "start_year": 2026,
    "language": "Fr"
  },
  {
    "id": "3169739",
    "company": "Banque Raiffeisen des Montagnes Neuchâteloises",
    "job": "Employé/e de commerce (Banque) CFC",
    "canton": "NE",
    "city": "La Chaux-de-Fonds",
    "lat": 47.10272979736328,
    "lng": 6.8307061195373535,
    "address": "Avenue Léopold-Robert 11 2300 La Chaux-de-Fonds",
    "postal": "2300",
    "positions": 1,
    "contact_email": "rhmontagnes-neuchateloises@raiffeisen.ch",
    "contact_phone": "0329105100",
    "start_year": 2026,
    "language": "Fr"
  },
  {
    "id": "3169381",
    "company": "UBS SA",
    "job": "Employé/e de commerce (Banque) CFC",
    "canton": "NE",
    "city": "La Chaux-de-Fonds",
    "lat": 47.102760314941406,
    "lng": 6.829319000244141,
    "address": "Léopold-Robert   16 2300 La Chaux-de-Fonds",
    "postal": "2300",
    "positions": 1,
    "contact_email": "",
    "contact_phone": "",
    "start_year": 2026,
    "language": "Fr"
  },
  {
    "id": "3169737",
    "company": "Banque Bonhôte & Cie SA",
    "job": "Employé/e de commerce (Banque) CFC",
    "canton": "NE",
    "city": "Neuchâtel",
    "lat": 46.989410400390625,
    "lng": 6.930966854095459,
    "address": "Quai Ostervald 2 2000 Neuchâtel",
    "postal": "2000",
    "positions": 1,
    "contact_email": "apprentissage@bonhote.ch",
    "contact_phone": "0327221002",
    "start_year": 2026,
    "language": "Fr"
  },
  {
    "id": "3206026",
    "company": "Banque Raiffeisen Neuchâtel et Vallées",
    "job": "Employé/e de commerce (Banque) CFC",
    "canton": "NE",
    "city": "Neuchâtel",
    "lat": 46.990543365478516,
    "lng": 6.930796146392822,
    "address": "Rue Saint-Honoré 5 2000 Neuchâtel",
    "postal": "2000",
    "positions": 1,
    "contact_email": "rhneuchatel@raiffeisen.ch",
    "contact_phone": "0328364172",
    "start_year": 2026,
    "language": "Fr"
  },
  {
    "id": "3389695",
    "company": "Banque Valiant SA",
    "job": "Employé/e de commerce (Banque) CFC",
    "canton": "NE",
    "city": "Neuchâtel",
    "lat": 46.99075698852539,
    "lng": 6.929047107696533,
    "address": "Rue du Seyon  1 2000 Neuchâtel",
    "postal": "2000",
    "positions": 1,
    "contact_email": "grundbildung@valiant.ch",
    "contact_phone": "0313107375",
    "start_year": 2026,
    "language": "Fr"
  },
  {
    "id": "3169383",
    "company": "UBS SA",
    "job": "Employé/e de commerce (Banque) CFC",
    "canton": "NE",
    "city": "Neuchâtel",
    "lat": 46.990047454833984,
    "lng": 6.929600238800049,
    "address": "Place Pury 5 2000 Neuchâtel",
    "postal": "2000",
    "positions": 2,
    "contact_email": "",
    "contact_phone": "",
    "start_year": 2026,
    "language": "Fr"
  },
  {
    "id": "3202173",
    "company": "Banque cantonale neuchâteloise",
    "job": "Employé/e de commerce (Banque) CFC",
    "canton": "NE",
    "city": "Neuchâtel 1",
    "lat": 46.98984146118164,
    "lng": 6.928779602050781,
    "address": "Place Pury  4 2001 Neuchâtel 1",
    "postal": "2001",
    "positions": 2,
    "contact_email": "sabine.currit@bcn.ch",
    "contact_phone": "0327236243",
    "start_year": 2026,
    "language": "Fr"
  },
  {
    "id": "3169642",
    "company": "Arrigo SA",
    "job": "Employé/e de commerce (Construire et habiter) CFC",
    "canton": "NE",
    "city": "Peseux",
    "lat": 46.988685607910156,
    "lng": 6.894219398498535,
    "address": "Rue de Neuchâtel  19 2034 Peseux",
    "postal": "2034",
    "positions": 1,
    "contact_email": "gmettraux@arrigo.ch",
    "contact_phone": "0327321632",
    "start_year": 2026,
    "language": "Fr"
  },
  {
    "id": "3199539",
    "company": "Reysus Gérance SA",
    "job": "Employé/e de commerce (Fiduciaire/immobilière) CFC",
    "canton": "NE",
    "city": "Colombier NE",
    "lat": 46.96601104736328,
    "lng": 6.859521865844727,
    "address": "Rue Haute 21 2013 Colombier NE",
    "postal": "2013",
    "positions": 1,
    "contact_email": "gerance@reysus.ch",
    "contact_phone": "0328434040",
    "start_year": 2026,
    "language": "Fr"
  },
  {
    "id": "3198545",
    "company": "Wincasa SA",
    "job": "Employé/e de commerce (Fiduciaire/immobilière) CFC",
    "canton": "NE",
    "city": "Neuchâtel",
    "lat": 46.99099349975586,
    "lng": 6.931020736694336,
    "address": "Saint-Honoré   2 2000 Neuchâtel",
    "postal": "2000",
    "positions": 1,
    "contact_email": "beruflichegrundbildung@wincasa.ch",
    "contact_phone": "0584747474",
    "start_year": 2026,
    "language": "Fr"
  },
  {
    "id": "3347645",
    "company": "INLAW Wildhaber SA",
    "job": "Employé/e de commerce (Notariats de Suisse) CFC",
    "canton": "NE",
    "city": "Neuchâtel",
    "lat": 46.992401123046875,
    "lng": 6.930431842803955,
    "address": "Rue des Terreaux 5 2000 Neuchâtel",
    "postal": "2000",
    "positions": 1,
    "contact_email": "aherry@in-law.ch",
    "contact_phone": "0327273650",
    "start_year": 2026,
    "language": "Fr"
  },
  {
    "id": "3196200",
    "company": "Eli10 SA",
    "job": "Employé/e de commerce (Services et administration SA) CFC",
    "canton": "NE",
    "city": "Bevaix",
    "lat": 46.92680740356445,
    "lng": 6.8121442794799805,
    "address": "Rue du Château  17 2022 Bevaix",
    "postal": "2022",
    "positions": 1,
    "contact_email": "rh@eli10.ch",
    "contact_phone": "0327202020",
    "start_year": 2026,
    "language": "Fr"
  },
  {
    "id": "3163498",
    "company": "Groupe E Arc SA",
    "job": "Employé/e de commerce (Services et administration SA) CFC",
    "canton": "NE",
    "city": "Boudry",
    "lat": 46.959938049316406,
    "lng": 6.83651065826416,
    "address": "Route de la Gare 64 2017 Boudry",
    "postal": "2017",
    "positions": 1,
    "contact_email": "talents-academy@groupe-e.ch",
    "contact_phone": "0263525060",
    "start_year": 2026,
    "language": "Fr"
  },
  {
    "id": "3170029",
    "company": "Vitogaz Switzerland AG",
    "job": "Employé/e de commerce (Services et administration SA) CFC",
    "canton": "NE",
    "city": "Cornaux NE",
    "lat": 47.03340530395508,
    "lng": 7.031073570251465,
    "address": "A Bugeon  1 2087 Cornaux NE",
    "postal": "2087",
    "positions": 1,
    "contact_email": "samantha.pult@vitogaz.ch",
    "contact_phone": "0792201111",
    "start_year": 2026,
    "language": "Fr"
  },
  {
    "id": "3169474",
    "company": "Nexans Suisse SA",
    "job": "Employé/e de commerce (Services et administration SA) CFC",
    "canton": "NE",
    "city": "Cortaillod",
    "lat": 46.94660949707031,
    "lng": 6.85488224029541,
    "address": "Avenue François-Borel 17 2016 Cortaillod",
    "postal": "2016",
    "positions": 2,
    "contact_email": "hr.ch@nexans.com",
    "contact_phone": "0328435555",
    "start_year": 2026,
    "language": "Fr"
  },
  {
    "id": "3170090",
    "company": "apiah",
    "job": "Employé/e de commerce (Services et administration SA) CFC",
    "canton": "NE",
    "city": "La Chaux-de-Fonds",
    "lat": 47.1039924621582,
    "lng": 6.824408531188965,
    "address": "Rue du Temple-Allemand 47 2300 La Chaux-de-Fonds",
    "postal": "2300",
    "positions": 1,
    "contact_email": "info@reneuchatel.ch",
    "contact_phone": "0789006961",
    "start_year": 2026,
    "language": "Fr"
  },
  {
    "id": "3388177",
    "company": "AROSS",
    "job": "Employé/e de commerce (Services et administration SA) CFC",
    "canton": "NE",
    "city": "La Chaux-de-Fonds",
    "lat": 47.102760314941406,
    "lng": 6.829319000244141,
    "address": "Avenue Léopold-Robert 16 2300 La Chaux-de-Fonds",
    "postal": "2300",
    "positions": 1,
    "contact_email": "info@aross.ch",
    "contact_phone": "0328869090",
    "start_year": 2026,
    "language": "Fr"
  },